{
"type": "FeatureCollection",
"features": [
{ "type": "Feature", "properties": { "Asset_Name": "Aarohi Model School", "Lat": 29.56671, "Long": 75.73138, "Management": "BSEH, Haryana", "Village_Na": "Dullat(76)", "Panchayat": "Dult", "Village_Co": 60414.0, "Block_Name": "Bhuna", "Tehsil_Nam": "Fatehabad", "District_N": "Fatehabad", "Area_of_As": "8 Acre", "Constructi": "Completed", "Foundation": 2011.0, "icon_exp": "School.png" }, "geometry": { "type": "Point", "coordinates": [ 75.73138, 29.56671 ] } },
{ "type": "Feature", "properties": { "Asset_Name": "Aarohi Model School", "Lat": 29.45711, "Long": 75.4254, "Management": "BSEH, Haryana", "Village_Na": "Bangram(43)", "Panchayat": "Bangaon", "Village_Co": 60480.0, "Block_Name": "Fatehabad", "Tehsil_Nam": "Fatehabad", "District_N": "Fatehabad", "Area_of_As": "5 Acre", "Constructi": "Completed", "Foundation": 2014.0, "icon_exp": "School.png" }, "geometry": { "type": "Point", "coordinates": [ 75.4254, 29.45711 ] } },
{ "type": "Feature", "properties": { "Asset_Name": "Aarohi Model School", "Lat": 29.689687, "Long": 75.498889, "Management": "BSEH, Haryana", "Village_Na": "Jallopur(166)", "Panchayat": "Jallopur", "Village_Co": 60286.0, "Block_Name": "Ratia", "Tehsil_Nam": "Ratia", "District_N": "Fatehabad", "Area_of_As": "8 Acre", "Constructi": "Under Construction", "Foundation": 2015.0, "icon_exp": "School.png" }, "geometry": { "type": "Point", "coordinates": [ 75.498889, 29.689687 ] } },
{ "type": "Feature", "properties": { "Asset_Name": "Aarohi Model School", "Lat": 29.67475, "Long": 75.93857, "Management": "BSEH, Haryana", "Village_Na": "Kanhri(93)", "Panchayat": "Kanhari", "Village_Co": 60387.0, "Block_Name": "Tohana", "Tehsil_Nam": "Tohana", "District_N": "Fatehabad", "Area_of_As": "8 Acres", "Constructi": "Completed", "Foundation": 2008.0, "icon_exp": "School.png" }, "geometry": { "type": "Point", "coordinates": [ 75.93857, 29.67475 ] } },
{ "type": "Feature", "properties": { "Asset_Name": "ADO Office", "Lat": 29.51341, "Long": 75.64783, "Management": "Agriculture Department", "Village_Na": "Jandli Khurd(89)", "Panchayat": "Jandli Khurd", "Village_Co": 60423.0, "Block_Name": "Bhuna", "Tehsil_Nam": "Fatehabad", "District_N": "Fatehabad", "Area_of_As": "2 marla", "Constructi": "Completed", "Foundation": 2010.0, "icon_exp": "Office.png" }, "geometry": { "type": "Point", "coordinates": [ 75.64783, 29.51341 ] } },
{ "type": "Feature", "properties": { "Asset_Name": "ADO Office", "Lat": 29.44911, "Long": 75.67648, "Management": "Agriculture Department", "Village_Na": "Gorakhpur(52)", "Panchayat": "Gorakhpur", "Village_Co": 60419.0, "Block_Name": "Bhuna", "Tehsil_Nam": "Fatehabad", "District_N": "Fatehabad", "Area_of_As": "1.5 Canal", "Constructi": "Completed", "Foundation": 2005.0, "icon_exp": "Office.png" }, "geometry": { "type": "Point", "coordinates": [ 75.67648, 29.44911 ] } },
{ "type": "Feature", "properties": { "Asset_Name": "ADO Office", "Lat": 29.798792, "Long": 75.824955, "Management": "Agriculture Department", "Village_Na": "Jakhal(210)", "Panchayat": "Jakhal", "Village_Co": 60332.0, "Block_Name": "Jakhal", "Tehsil_Nam": "Tohana", "District_N": "Fatehabad", "Area_of_As": "1 Canal", "Constructi": "Completed", "Foundation": 2013.0, "icon_exp": "Office.png" }, "geometry": { "type": "Point", "coordinates": [ 75.824955, 29.798792 ] } },
{ "type": "Feature", "properties": { "Asset_Name": "Agriculture Cooperative Society", "Lat": 29.53742, "Long": 75.70751, "Management": "HARCO", "Village_Na": "Bhuna(63)", "Panchayat": "Bhuna", "Village_Co": 60415.0, "Block_Name": "Bhuna", "Tehsil_Nam": "Fatehabad", "District_N": "Fatehabad", "Area_of_As": "3 Marla", "Constructi": "Completed", "Foundation": 1958.0, "icon_exp": "Society.png" }, "geometry": { "type": "Point", "coordinates": [ 75.70751, 29.53742 ] } },
{ "type": "Feature", "properties": { "Asset_Name": "Agriculture Cooperative Society", "Lat": 29.762209, "Long": 75.502292, "Management": "HARCO", "Village_Na": "Nangal(170)", "Panchayat": "Nangal", "Village_Co": 60277.0, "Block_Name": "Ratia", "Tehsil_Nam": "Ratia", "District_N": "Fatehabad", "Area_of_As": "2 Marla", "Constructi": "Completed", "Foundation": 2005.0, "icon_exp": "Society.png" }, "geometry": { "type": "Point", "coordinates": [ 75.502292, 29.762209 ] } },
{ "type": "Feature", "properties": { "Asset_Name": "Agriculture Cooperative Society", "Lat": 29.597701, "Long": 75.856949, "Management": "HARCO", "Village_Na": "Pirthla(109)", "Panchayat": "Pirthla", "Village_Co": 60397.0, "Block_Name": "Tohana", "Tehsil_Nam": "Tohana", "District_N": "Fatehabad", "Area_of_As": "1 Canal", "Constructi": "Completed", "Foundation": 2001.0, "icon_exp": "Society.png" }, "geometry": { "type": "Point", "coordinates": [ 75.856949, 29.597701 ] } },
{ "type": "Feature", "properties": { "Asset_Name": "Ambedkar Bhawan", "Lat": 29.40479, "Long": 75.40039, "Management": "Gram Panchayat", "Village_Na": "Kirdhan(28)", "Panchayat": "Kridhan", "Village_Co": 60503.0, "Block_Name": "Bhattu Kalan", "Tehsil_Nam": "Fatehabad", "District_N": "Fatehabad", "Area_of_As": "8 Marla", "Constructi": "Abondoned", "Foundation": 1985.0, "icon_exp": "Society.png" }, "geometry": { "type": "Point", "coordinates": [ 75.40039, 29.40479 ] } },
{ "type": "Feature", "properties": { "Asset_Name": "Ambedkar Bhawan", "Lat": 29.44059, "Long": 75.73439, "Management": "Gram Panchayat", "Village_Na": "Nehla(59)", "Panchayat": "Nehla", "Village_Co": 60417.0, "Block_Name": "Bhuna", "Tehsil_Nam": "Fatehabad", "District_N": "Fatehabad", "Area_of_As": "1 Acre", "Constructi": "Completed", "Foundation": 1996.0, "icon_exp": "Society.png" }, "geometry": { "type": "Point", "coordinates": [ 75.73439, 29.44059 ] } },
{ "type": "Feature", "properties": { "Asset_Name": "Anganwadi Centre", "Lat": 29.40983, "Long": 75.31565, "Management": "Women & Child Welfare", "Village_Na": "Mehuwala(15)", "Panchayat": "Mehuwala", "Village_Co": 60487.0, "Block_Name": "Bhattu Kalan", "Tehsil_Nam": "Fatehabad", "District_N": "Fatehabad", "Area_of_As": "222 Gaj", "Constructi": "Completed", "Foundation": 2007.0, "icon_exp": "Aanganwadi_Centre.png" }, "geometry": { "type": "Point", "coordinates": [ 75.31565, 29.40983 ] } },
{ "type": "Feature", "properties": { "Asset_Name": "Anganwadi Centre", "Lat": 29.41515, "Long": 75.31775, "Management": "Women & Child Welfare", "Village_Na": "Mehuwala(15)", "Panchayat": "Mehuwala", "Village_Co": 60487.0, "Block_Name": "Bhattu Kalan", "Tehsil_Nam": "Fatehabad", "District_N": "Fatehabad", "Area_of_As": "250 Gaj", "Constructi": "Completed", "Foundation": 2004.0, "icon_exp": "Aanganwadi_Centre.png" }, "geometry": { "type": "Point", "coordinates": [ 75.31775, 29.41515 ] } },
{ "type": "Feature", "properties": { "Asset_Name": "Anganwadi Centre", "Lat": 29.41447, "Long": 75.31631, "Management": "Women & Child Welfare", "Village_Na": "Mehuwala(15)", "Panchayat": "Mehuwala", "Village_Co": 60487.0, "Block_Name": "Bhattu Kalan", "Tehsil_Nam": "Fatehabad", "District_N": "Fatehabad", "Area_of_As": "150 Gaj", "Constructi": "Completed", "Foundation": 2012.0, "icon_exp": "Aanganwadi_Centre.png" }, "geometry": { "type": "Point", "coordinates": [ 75.31631, 29.41447 ] } },
{ "type": "Feature", "properties": { "Asset_Name": "Anganwadi Centre", "Lat": 29.41081, "Long": 75.32113, "Management": "Women & Child Welfare", "Village_Na": "Mehuwala(15)", "Panchayat": "Mehuwala", "Village_Co": 60487.0, "Block_Name": "Bhattu Kalan", "Tehsil_Nam": "Fatehabad", "District_N": "Fatehabad", "Area_of_As": "250 Gaj", "Constructi": "Completed", "Foundation": 2013.0, "icon_exp": "Aanganwadi_Centre.png" }, "geometry": { "type": "Point", "coordinates": [ 75.32113, 29.41081 ] } },
{ "type": "Feature", "properties": { "Asset_Name": "Anganwadi Centre", "Lat": 29.270611, "Long": 75.260232, "Management": "Women & Child Welfare", "Village_Na": "Dayor(1)", "Panchayat": "Dayer", "Village_Co": 60493.0, "Block_Name": "Bhattu Kalan", "Tehsil_Nam": "Fatehabad", "District_N": "Fatehabad", "Area_of_As": "0.5 Acre", "Constructi": "Completed", "Foundation": 2011.0, "icon_exp": "Aanganwadi_Centre.png" }, "geometry": { "type": "Point", "coordinates": [ 75.260232, 29.270611 ] } },
{ "type": "Feature", "properties": { "Asset_Name": "Anganwadi Centre", "Lat": 29.27107, "Long": 75.26331, "Management": "Women & Child Welfare", "Village_Na": "Dayor(1)", "Panchayat": "Dayer", "Village_Co": 60493.0, "Block_Name": "Bhattu Kalan", "Tehsil_Nam": "Fatehabad", "District_N": "Fatehabad", "Area_of_As": "1 Canal", "Constructi": "Completed", "Foundation": 2013.0, "icon_exp": "Aanganwadi_Centre.png" }, "geometry": { "type": "Point", "coordinates": [ 75.26331, 29.27107 ] } },
{ "type": "Feature", "properties": { "Asset_Name": "Anganwadi Centre", "Lat": 29.265478, "Long": 75.260994, "Management": "Women & Child Welfare", "Village_Na": "Dayor(1)", "Panchayat": "Dayer", "Village_Co": 60493.0, "Block_Name": "Bhattu Kalan", "Tehsil_Nam": "Fatehabad", "District_N": "Fatehabad", "Area_of_As": "0.5 Acre", "Constructi": "Completed", "Foundation": 2013.0, "icon_exp": "Aanganwadi_Centre.png" }, "geometry": { "type": "Point", "coordinates": [ 75.260994, 29.265478 ] } },
{ "type": "Feature", "properties": { "Asset_Name": "Anganwadi Centre", "Lat": 29.26675, "Long": 75.26121, "Management": "Women & Child Welfare", "Village_Na": "Dayor(1)", "Panchayat": "Dayer", "Village_Co": 60493.0, "Block_Name": "Bhattu Kalan", "Tehsil_Nam": "Fatehabad", "District_N": "Fatehabad", "Area_of_As": "400 Gaj", "Constructi": "Completed", "Foundation": 2012.0, "icon_exp": "Aanganwadi_Centre.png" }, "geometry": { "type": "Point", "coordinates": [ 75.26121, 29.26675 ] } },
{ "type": "Feature", "properties": { "Asset_Name": "Anganwadi Centre", "Lat": 29.329221, "Long": 75.326484, "Management": "Women & Child Welfare", "Village_Na": "Dhabi Kalan(11)", "Panchayat": "Dhabi Kalan", "Village_Co": 60496.0, "Block_Name": "Bhattu Kalan", "Tehsil_Nam": "Fatehabad", "District_N": "Fatehabad", "Area_of_As": "2800 sq ft", "Constructi": "Completed", "Foundation": 1995.0, "icon_exp": "Aanganwadi_Centre.png" }, "geometry": { "type": "Point", "coordinates": [ 75.326484, 29.329221 ] } },
{ "type": "Feature", "properties": { "Asset_Name": "Anganwadi Centre", "Lat": 29.32535, "Long": 75.32602, "Management": "Women & Child Welfare", "Village_Na": "Dhabi Kalan(11)", "Panchayat": "Dhabi Kalan", "Village_Co": 60496.0, "Block_Name": "Bhattu Kalan", "Tehsil_Nam": "Fatehabad", "District_N": "Fatehabad", "Area_of_As": "1 Canal", "Constructi": "Completed", "Foundation": 1994.0, "icon_exp": "Aanganwadi_Centre.png" }, "geometry": { "type": "Point", "coordinates": [ 75.32602, 29.32535 ] } },
{ "type": "Feature", "properties": { "Asset_Name": "Anganwadi Centre", "Lat": 29.330403, "Long": 75.321301, "Management": "Women & Child Welfare", "Village_Na": "Dhabi Kalan(11)", "Panchayat": "Dhabi Kalan", "Village_Co": 60496.0, "Block_Name": "Bhattu Kalan", "Tehsil_Nam": "Fatehabad", "District_N": "Fatehabad", "Area_of_As": "1 Canal", "Constructi": "Completed", "Foundation": 2009.0, "icon_exp": "Aanganwadi_Centre.png" }, "geometry": { "type": "Point", "coordinates": [ 75.321301, 29.330403 ] } },
{ "type": "Feature", "properties": { "Asset_Name": "Anganwadi Centre", "Lat": 29.329713, "Long": 75.326139, "Management": "Women & Child Welfare", "Village_Na": "Dhabi Kalan(11)", "Panchayat": "Dhabi Kalan", "Village_Co": 60496.0, "Block_Name": "Bhattu Kalan", "Tehsil_Nam": "Fatehabad", "District_N": "Fatehabad", "Area_of_As": "50 Gaj", "Constructi": "Completed", "Foundation": 2013.0, "icon_exp": "Aanganwadi_Centre.png" }, "geometry": { "type": "Point", "coordinates": [ 75.326139, 29.329713 ] } },
{ "type": "Feature", "properties": { "Asset_Name": "Anganwadi Centre", "Lat": 29.32792, "Long": 75.32452, "Management": "Women & Child Welfare", "Village_Na": "Dhabi Kalan(11)", "Panchayat": "Dhabi Kalan", "Village_Co": 60496.0, "Block_Name": "Bhattu Kalan", "Tehsil_Nam": "Fatehabad", "District_N": "Fatehabad", "Area_of_As": "250 Gaj", "Constructi": "Completed", "Foundation": 2006.0, "icon_exp": "Aanganwadi_Centre.png" }, "geometry": { "type": "Point", "coordinates": [ 75.32452, 29.32792 ] } },
{ "type": "Feature", "properties": { "Asset_Name": "Anganwadi Centre", "Lat": 29.439832, "Long": 75.364015, "Management": "Women & Child Welfare", "Village_Na": "Dhingsara (30)", "Panchayat": "Dhingsara", "Village_Co": 60501.0, "Block_Name": "Bhattu Kalan", "Tehsil_Nam": "Fatehabad", "District_N": "Fatehabad", "Area_of_As": "250 Gaj", "Constructi": "Completed", "Foundation": 1997.0, "icon_exp": "Aanganwadi_Centre.png" }, "geometry": { "type": "Point", "coordinates": [ 75.364015, 29.439832 ] } },
{ "type": "Feature", "properties": { "Asset_Name": "Anganwadi Centre", "Lat": 29.444535, "Long": 75.368884, "Management": "Women & Child Welfare", "Village_Na": "Dhingsara (30)", "Panchayat": "Dhingsara", "Village_Co": 60501.0, "Block_Name": "Bhattu Kalan", "Tehsil_Nam": "Fatehabad", "District_N": "Fatehabad", "Area_of_As": "200 Gaj", "Constructi": "Completed", "Foundation": 2011.0, "icon_exp": "Aanganwadi_Centre.png" }, "geometry": { "type": "Point", "coordinates": [ 75.368884, 29.444535 ] } },
{ "type": "Feature", "properties": { "Asset_Name": "Anganwadi Centre", "Lat": 29.363398, "Long": 75.362933, "Management": "Women & Child Welfare", "Village_Na": "Suli Khera(17)", "Panchayat": "Sulikhera", "Village_Co": 60499.0, "Block_Name": "Bhattu Kalan", "Tehsil_Nam": "Fatehabad", "District_N": "Fatehabad", "Area_of_As": "0.5 Acre", "Constructi": "Completed", "Foundation": 2012.0, "icon_exp": "Aanganwadi_Centre.png" }, "geometry": { "type": "Point", "coordinates": [ 75.362933, 29.363398 ] } },
{ "type": "Feature", "properties": { "Asset_Name": "Anganwadi Centre", "Lat": 29.367084, "Long": 75.365656, "Management": "Women & Child Welfare", "Village_Na": "Suli Khera(17)", "Panchayat": "Sulikhera", "Village_Co": 60499.0, "Block_Name": "Bhattu Kalan", "Tehsil_Nam": "Fatehabad", "District_N": "Fatehabad", "Area_of_As": "250 Gaj", "Constructi": "Completed", "Foundation": 2015.0, "icon_exp": "Aanganwadi_Centre.png" }, "geometry": { "type": "Point", "coordinates": [ 75.365656, 29.367084 ] } },
{ "type": "Feature", "properties": { "Asset_Name": "Anganwadi Centre", "Lat": 29.36117, "Long": 75.36705, "Management": "Women & Child Welfare", "Village_Na": "Suli Khera(17)", "Panchayat": "Sulikhera", "Village_Co": 60499.0, "Block_Name": "Bhattu Kalan", "Tehsil_Nam": "Fatehabad", "District_N": "Fatehabad", "Area_of_As": "150 Gaj", "Constructi": "Completed", "Foundation": 2005.0, "icon_exp": "Aanganwadi_Centre.png" }, "geometry": { "type": "Point", "coordinates": [ 75.36705, 29.36117 ] } },
{ "type": "Feature", "properties": { "Asset_Name": "Anganwadi Centre", "Lat": 29.373737, "Long": 75.419211, "Management": "Women & Child Welfare", "Village_Na": "Shekhupur Darauli(18)", "Panchayat": "Dhani Purbiyan", "Village_Co": 60504.0, "Block_Name": "Bhattu Kalan", "Tehsil_Nam": "Fatehabad", "District_N": "Fatehabad", "Area_of_As": "2500 sq ft", "Constructi": "Completed", "Foundation": 2013.0, "icon_exp": "Aanganwadi_Centre.png" }, "geometry": { "type": "Point", "coordinates": [ 75.419211, 29.373737 ] } },
{ "type": "Feature", "properties": { "Asset_Name": "Anganwadi Centre", "Lat": 29.36408, "Long": 75.41007, "Management": "Women & Child Welfare", "Village_Na": "Shekhupur Darauli(18)", "Panchayat": "Shekhupur Daroli", "Village_Co": 60504.0, "Block_Name": "Bhattu Kalan", "Tehsil_Nam": "Fatehabad", "District_N": "Fatehabad", "Area_of_As": "2000 sq ft", "Constructi": "Completed", "Foundation": 2009.0, "icon_exp": "Aanganwadi_Centre.png" }, "geometry": { "type": "Point", "coordinates": [ 75.41007, 29.36408 ] } },
{ "type": "Feature", "properties": { "Asset_Name": "Anganwadi Centre", "Lat": 29.36191, "Long": 75.40831, "Management": "Women & Child Welfare", "Village_Na": "Shekhupur Darauli(18)", "Panchayat": "Shekhupur Daroli", "Village_Co": 60504.0, "Block_Name": "Bhattu Kalan", "Tehsil_Nam": "Fatehabad", "District_N": "Fatehabad", "Area_of_As": "2000 sq ft", "Constructi": "Completed", "Foundation": 2011.0, "icon_exp": "Aanganwadi_Centre.png" }, "geometry": { "type": "Point", "coordinates": [ 75.40831, 29.36191 ] } },
{ "type": "Feature", "properties": { "Asset_Name": "Anganwadi Centre", "Lat": 29.38512, "Long": 75.24788, "Management": "Women & Child Welfare", "Village_Na": "Pili Mandori(14)", "Panchayat": "Pili Mandori", "Village_Co": 60489.0, "Block_Name": "Bhattu Kalan", "Tehsil_Nam": "Fatehabad", "District_N": "Fatehabad", "Area_of_As": "2000 sq ft", "Constructi": "Completed", "Foundation": 2007.0, "icon_exp": "Aanganwadi_Centre.png" }, "geometry": { "type": "Point", "coordinates": [ 75.24788, 29.38512 ] } },
{ "type": "Feature", "properties": { "Asset_Name": "Anganwadi Centre", "Lat": 29.38815, "Long": 75.24933, "Management": "Women & Child Welfare", "Village_Na": "Pili Mandori(14)", "Panchayat": "Pili Mandori", "Village_Co": 60489.0, "Block_Name": "Bhattu Kalan", "Tehsil_Nam": "Fatehabad", "District_N": "Fatehabad", "Area_of_As": "2500 sq ft", "Constructi": "Completed", "Foundation": 2011.0, "icon_exp": "Aanganwadi_Centre.png" }, "geometry": { "type": "Point", "coordinates": [ 75.24933, 29.38815 ] } },
{ "type": "Feature", "properties": { "Asset_Name": "Anganwadi Centre", "Lat": 29.38751, "Long": 75.25098, "Management": "Women & Child Welfare", "Village_Na": "Pili Mandori(14)", "Panchayat": "Pili Mandori", "Village_Co": 60489.0, "Block_Name": "Bhattu Kalan", "Tehsil_Nam": "Fatehabad", "District_N": "Fatehabad", "Area_of_As": "2000 sq ft", "Constructi": "Completed", "Foundation": 2006.0, "icon_exp": "Aanganwadi_Centre.png" }, "geometry": { "type": "Point", "coordinates": [ 75.25098, 29.38751 ] } },
{ "type": "Feature", "properties": { "Asset_Name": "Anganwadi Centre", "Lat": 29.387859, "Long": 75.252714, "Management": "Women & Child Welfare", "Village_Na": "Pili Mandori(14)", "Panchayat": "Pili Mandori", "Village_Co": 60489.0, "Block_Name": "Bhattu Kalan", "Tehsil_Nam": "Fatehabad", "District_N": "Fatehabad", "Area_of_As": "1500 sq ft", "Constructi": "Completed", "Foundation": 2007.0, "icon_exp": "Aanganwadi_Centre.png" }, "geometry": { "type": "Point", "coordinates": [ 75.252714, 29.387859 ] } },
{ "type": "Feature", "properties": { "Asset_Name": "Anganwadi Centre", "Lat": 29.38935, "Long": 75.25417, "Management": "Women & Child Welfare", "Village_Na": "Pili Mandori(14)", "Panchayat": "Pili Mandori", "Village_Co": 60489.0, "Block_Name": "Bhattu Kalan", "Tehsil_Nam": "Fatehabad", "District_N": "Fatehabad", "Area_of_As": "400 Gaj", "Constructi": "Completed", "Foundation": 2013.0, "icon_exp": "Aanganwadi_Centre.png" }, "geometry": { "type": "Point", "coordinates": [ 75.25417, 29.38935 ] } },
{ "type": "Feature", "properties": { "Asset_Name": "Anganwadi Centre", "Lat": 29.39251, "Long": 75.25448, "Management": "Women & Child Welfare", "Village_Na": "Pili Mandori(14)", "Panchayat": "Pili Mandori", "Village_Co": 60489.0, "Block_Name": "Bhattu Kalan", "Tehsil_Nam": "Fatehabad", "District_N": "Fatehabad", "Area_of_As": "200 Gaj", "Constructi": "Completed", "Foundation": 2012.0, "icon_exp": "Aanganwadi_Centre.png" }, "geometry": { "type": "Point", "coordinates": [ 75.25448, 29.39251 ] } },
{ "type": "Feature", "properties": { "Asset_Name": "Anganwadi Centre", "Lat": 29.386626, "Long": 75.254567, "Management": "Women & Child Welfare", "Village_Na": "Pili Mandori(14)", "Panchayat": "Pili Mandori", "Village_Co": 60489.0, "Block_Name": "Bhattu Kalan", "Tehsil_Nam": "Fatehabad", "District_N": "Fatehabad", "Area_of_As": "3000 sq ft", "Constructi": "Completed", "Foundation": 2011.0, "icon_exp": "Aanganwadi_Centre.png" }, "geometry": { "type": "Point", "coordinates": [ 75.254567, 29.386626 ] } },
{ "type": "Feature", "properties": { "Asset_Name": "Anganwadi Centre", "Lat": 29.390545, "Long": 75.349649, "Management": "Women & Child Welfare", "Village_Na": "Bhattu Khurd(120)", "Panchayat": "Bhattu Mandi", "Village_Co": 60474.0, "Block_Name": "Bhattu Kalan", "Tehsil_Nam": "Fatehabad", "District_N": "Fatehabad", "Area_of_As": "2500 sq ft", "Constructi": "Completed", "Foundation": 2012.0, "icon_exp": "Aanganwadi_Centre.png" }, "geometry": { "type": "Point", "coordinates": [ 75.349649, 29.390545 ] } },
{ "type": "Feature", "properties": { "Asset_Name": "Anganwadi Centre", "Lat": 29.388947, "Long": 75.347722, "Management": "Women & Child Welfare", "Village_Na": "Bhattu Khurd(120)", "Panchayat": "Bhattu Mandi", "Village_Co": 60474.0, "Block_Name": "Bhattu Kalan", "Tehsil_Nam": "Fatehabad", "District_N": "Fatehabad", "Area_of_As": "250 Gaj", "Constructi": "Completed", "Foundation": 2010.0, "icon_exp": "Aanganwadi_Centre.png" }, "geometry": { "type": "Point", "coordinates": [ 75.347722, 29.388947 ] } },
{ "type": "Feature", "properties": { "Asset_Name": "Anganwadi Centre", "Lat": 29.329264, "Long": 75.365983, "Management": "Women & Child Welfare", "Village_Na": "Khabra Kalan(9)", "Panchayat": "Khabra Kalan", "Village_Co": 60498.0, "Block_Name": "Bhattu Kalan", "Tehsil_Nam": "Fatehabad", "District_N": "Fatehabad", "Area_of_As": "250 Gaj", "Constructi": "Completed", "Foundation": 2012.0, "icon_exp": "Aanganwadi_Centre.png" }, "geometry": { "type": "Point", "coordinates": [ 75.365983, 29.329264 ] } },
{ "type": "Feature", "properties": { "Asset_Name": "Anganwadi Centre", "Lat": 29.329268, "Long": 75.366082, "Management": "Women & Child Welfare", "Village_Na": "Khabra Kalan(9)", "Panchayat": "Khabra Kalan", "Village_Co": 60498.0, "Block_Name": "Bhattu Kalan", "Tehsil_Nam": "Fatehabad", "District_N": "Fatehabad", "Area_of_As": "250 Gaj", "Constructi": "Completed", "Foundation": 2012.0, "icon_exp": "Aanganwadi_Centre.png" }, "geometry": { "type": "Point", "coordinates": [ 75.366082, 29.329268 ] } },
{ "type": "Feature", "properties": { "Asset_Name": "Anganwadi Centre", "Lat": 29.32818, "Long": 75.36571, "Management": "Women & Child Welfare", "Village_Na": "Khabra Kalan(9)", "Panchayat": "Khabra Kalan", "Village_Co": 60498.0, "Block_Name": "Bhattu Kalan", "Tehsil_Nam": "Fatehabad", "District_N": "Fatehabad", "Area_of_As": "250 Gaj", "Constructi": "Completed", "Foundation": 2013.0, "icon_exp": "Aanganwadi_Centre.png" }, "geometry": { "type": "Point", "coordinates": [ 75.36571, 29.32818 ] } },
{ "type": "Feature", "properties": { "Asset_Name": "Anganwadi Centre", "Lat": 29.328862, "Long": 75.366314, "Management": "Women & Child Welfare", "Village_Na": "Khabra Kalan(9)", "Panchayat": "Khabra Kalan", "Village_Co": 60498.0, "Block_Name": "Bhattu Kalan", "Tehsil_Nam": "Fatehabad", "District_N": "Fatehabad", "Area_of_As": "250 Gaj", "Constructi": "Completed", "Foundation": 1997.0, "icon_exp": "Aanganwadi_Centre.png" }, "geometry": { "type": "Point", "coordinates": [ 75.366314, 29.328862 ] } },
{ "type": "Feature", "properties": { "Asset_Name": "Anganwadi Centre", "Lat": 29.33243, "Long": 75.36823, "Management": "Women & Child Welfare", "Village_Na": "Khabra Kalan(9)", "Panchayat": "Khabra Kalan", "Village_Co": 60498.0, "Block_Name": "Bhattu Kalan", "Tehsil_Nam": "Fatehabad", "District_N": "Fatehabad", "Area_of_As": "5 Marla", "Constructi": "Completed", "Foundation": 2002.0, "icon_exp": "Aanganwadi_Centre.png" }, "geometry": { "type": "Point", "coordinates": [ 75.36823, 29.33243 ] } },
{ "type": "Feature", "properties": { "Asset_Name": "Anganwadi Centre", "Lat": 29.329673, "Long": 75.363311, "Management": "Women & Child Welfare", "Village_Na": "Khabra Kalan(9)", "Panchayat": "Khabra Kalan", "Village_Co": 60498.0, "Block_Name": "Bhattu Kalan", "Tehsil_Nam": "Fatehabad", "District_N": "Fatehabad", "Area_of_As": "2 Canal", "Constructi": "Completed", "Foundation": 1998.0, "icon_exp": "Aanganwadi_Centre.png" }, "geometry": { "type": "Point", "coordinates": [ 75.363311, 29.329673 ] } },
{ "type": "Feature", "properties": { "Asset_Name": "Anganwadi Centre", "Lat": 29.38427, "Long": 75.33991, "Management": "Women & Child Welfare", "Village_Na": "Bhattu Kalan(16)", "Panchayat": "Bhattu Kalan", "Village_Co": 60500.0, "Block_Name": "Bhattu Kalan", "Tehsil_Nam": "Fatehabad", "District_N": "Fatehabad", "Area_of_As": "250 Gaj", "Constructi": "Completed", "Foundation": 1999.0, "icon_exp": "Aanganwadi_Centre.png" }, "geometry": { "type": "Point", "coordinates": [ 75.33991, 29.38427 ] } },
{ "type": "Feature", "properties": { "Asset_Name": "Anganwadi Centre", "Lat": 29.38377, "Long": 75.34135, "Management": "Women & Child Welfare", "Village_Na": "Bhattu Kalan(16)", "Panchayat": "Bhattu Kalan", "Village_Co": 60500.0, "Block_Name": "Bhattu Kalan", "Tehsil_Nam": "Fatehabad", "District_N": "Fatehabad", "Area_of_As": "250 Gaj", "Constructi": "Completed", "Foundation": 2015.0, "icon_exp": "Aanganwadi_Centre.png" }, "geometry": { "type": "Point", "coordinates": [ 75.34135, 29.38377 ] } },
{ "type": "Feature", "properties": { "Asset_Name": "Anganwadi Centre", "Lat": 29.37947, "Long": 75.33611, "Management": "Women & Child Welfare", "Village_Na": "Bhattu Kalan(16)", "Panchayat": "Bhattu Kalan", "Village_Co": 60500.0, "Block_Name": "Bhattu Kalan", "Tehsil_Nam": "Fatehabad", "District_N": "Fatehabad", "Area_of_As": "250 Gaj", "Constructi": "Completed", "Foundation": 2012.0, "icon_exp": "Aanganwadi_Centre.png" }, "geometry": { "type": "Point", "coordinates": [ 75.33611, 29.37947 ] } },
{ "type": "Feature", "properties": { "Asset_Name": "Anganwadi Centre", "Lat": 29.382994, "Long": 75.335041, "Management": "Women & Child Welfare", "Village_Na": "Bhattu Kalan(16)", "Panchayat": "Bhattu Kalan", "Village_Co": 60500.0, "Block_Name": "Bhattu Kalan", "Tehsil_Nam": "Fatehabad", "District_N": "Fatehabad", "Area_of_As": "250 Gaj", "Constructi": "Under Construction", "Foundation": 2015.0, "icon_exp": "Aanganwadi_Centre.png" }, "geometry": { "type": "Point", "coordinates": [ 75.335041, 29.382994 ] } },
{ "type": "Feature", "properties": { "Asset_Name": "Anganwadi Centre", "Lat": 29.383684, "Long": 75.336898, "Management": "Women & Child Welfare", "Village_Na": "Bhattu Kalan(16)", "Panchayat": "Bhattu Kalan", "Village_Co": 60500.0, "Block_Name": "Bhattu Kalan", "Tehsil_Nam": "Fatehabad", "District_N": "Fatehabad", "Area_of_As": "200 Gaj", "Constructi": "Completed", "Foundation": 2001.0, "icon_exp": "Aanganwadi_Centre.png" }, "geometry": { "type": "Point", "coordinates": [ 75.336898, 29.383684 ] } },
{ "type": "Feature", "properties": { "Asset_Name": "Anganwadi Centre", "Lat": 29.38393, "Long": 75.33707, "Management": "Women & Child Welfare", "Village_Na": "Bhattu Kalan(16)", "Panchayat": "Bhattu Kalan", "Village_Co": 60500.0, "Block_Name": "Bhattu Kalan", "Tehsil_Nam": "Fatehabad", "District_N": "Fatehabad", "Area_of_As": "250 Gaj", "Constructi": "Completed", "Foundation": 2003.0, "icon_exp": "Aanganwadi_Centre.png" }, "geometry": { "type": "Point", "coordinates": [ 75.33707, 29.38393 ] } },
{ "type": "Feature", "properties": { "Asset_Name": "Anganwadi Centre", "Lat": 29.38351, "Long": 75.33872, "Management": "Women & Child Welfare", "Village_Na": "Bhattu Kalan(16)", "Panchayat": "Bhattu Kalan", "Village_Co": 60500.0, "Block_Name": "Bhattu Kalan", "Tehsil_Nam": "Fatehabad", "District_N": "Fatehabad", "Area_of_As": "250 Gaj", "Constructi": "Completed", "Foundation": 2004.0, "icon_exp": "Aanganwadi_Centre.png" }, "geometry": { "type": "Point", "coordinates": [ 75.33872, 29.38351 ] } },
{ "type": "Feature", "properties": { "Asset_Name": "Anganwadi Centre", "Lat": 29.476163, "Long": 75.299231, "Management": "Women & Child Welfare", "Village_Na": "Bodiwali(36)", "Panchayat": "Bodiwali", "Village_Co": 60486.0, "Block_Name": "Bhattu Kalan", "Tehsil_Nam": "Fatehabad", "District_N": "Fatehabad", "Area_of_As": "250 Gaj", "Constructi": "Completed", "Foundation": 2011.0, "icon_exp": "Aanganwadi_Centre.png" }, "geometry": { "type": "Point", "coordinates": [ 75.299231, 29.476163 ] } },
{ "type": "Feature", "properties": { "Asset_Name": "Anganwadi Centre", "Lat": 29.494714, "Long": 75.337887, "Management": "Women & Child Welfare", "Village_Na": "Kukrawali(34)", "Panchayat": "Kukrawali", "Village_Co": 60484.0, "Block_Name": "Bhattu Kalan", "Tehsil_Nam": "Fatehabad", "District_N": "Fatehabad", "Area_of_As": "400 Gaj", "Constructi": "Completed", "Foundation": 2005.0, "icon_exp": "Aanganwadi_Centre.png" }, "geometry": { "type": "Point", "coordinates": [ 75.337887, 29.494714 ] } },
{ "type": "Feature", "properties": { "Asset_Name": "Anganwadi Centre", "Lat": 29.49522, "Long": 75.33765, "Management": "Women & Child Welfare", "Village_Na": "Kukrawali(34)", "Panchayat": "Kukrawali", "Village_Co": 60484.0, "Block_Name": "Bhattu Kalan", "Tehsil_Nam": "Fatehabad", "District_N": "Fatehabad", "Area_of_As": "200 Gaj", "Constructi": "Completed", "Foundation": 2013.0, "icon_exp": "Aanganwadi_Centre.png" }, "geometry": { "type": "Point", "coordinates": [ 75.33765, 29.49522 ] } },
{ "type": "Feature", "properties": { "Asset_Name": "Anganwadi Centre", "Lat": 29.495149, "Long": 75.337276, "Management": "Women & Child Welfare", "Village_Na": "Kukrawali(34)", "Panchayat": "Kukrawali", "Village_Co": 60484.0, "Block_Name": "Bhattu Kalan", "Tehsil_Nam": "Fatehabad", "District_N": "Fatehabad", "Area_of_As": "200 Gaj", "Constructi": "Under Construction", "Foundation": 2013.0, "icon_exp": "Aanganwadi_Centre.png" }, "geometry": { "type": "Point", "coordinates": [ 75.337276, 29.495149 ] } },
{ "type": "Feature", "properties": { "Asset_Name": "Anganwadi Centre", "Lat": 29.48015, "Long": 75.35595, "Management": "Women & Child Welfare", "Village_Na": "Kukrawali(34)", "Panchayat": "Dhani Mehtab", "Village_Co": 60484.0, "Block_Name": "Bhattu Kalan", "Tehsil_Nam": "Fatehabad", "District_N": "Fatehabad", "Area_of_As": "250 Gaj", "Constructi": "Completed", "Foundation": 2013.0, "icon_exp": "Aanganwadi_Centre.png" }, "geometry": { "type": "Point", "coordinates": [ 75.35595, 29.48015 ] } },
{ "type": "Feature", "properties": { "Asset_Name": "Anganwadi Centre", "Lat": 29.52038, "Long": 75.33133, "Management": "Women & Child Welfare", "Village_Na": "Kukrawali(34)", "Panchayat": "Dhani Chanan", "Village_Co": 60484.0, "Block_Name": "Bhattu Kalan", "Tehsil_Nam": "Fatehabad", "District_N": "Fatehabad", "Area_of_As": "200 Gaj", "Constructi": "Completed", "Foundation": 2011.0, "icon_exp": "Aanganwadi_Centre.png" }, "geometry": { "type": "Point", "coordinates": [ 75.33133, 29.52038 ] } },
{ "type": "Feature", "properties": { "Asset_Name": "Anganwadi Centre", "Lat": 29.284035, "Long": 75.298434, "Management": "Women & Child Welfare", "Village_Na": "Ramsra(4)", "Panchayat": "Ramsara", "Village_Co": 60494.0, "Block_Name": "Bhattu Kalan", "Tehsil_Nam": "Fatehabad", "District_N": "Fatehabad", "Area_of_As": "200 Gaj", "Constructi": "Completed", "Foundation": 2010.0, "icon_exp": "Aanganwadi_Centre.png" }, "geometry": { "type": "Point", "coordinates": [ 75.298434, 29.284035 ] } },
{ "type": "Feature", "properties": { "Asset_Name": "Anganwadi Centre", "Lat": 29.285472, "Long": 75.298414, "Management": "Women & Child Welfare", "Village_Na": "Ramsra(4)", "Panchayat": "Ramsara", "Village_Co": 60494.0, "Block_Name": "Bhattu Kalan", "Tehsil_Nam": "Fatehabad", "District_N": "Fatehabad", "Area_of_As": "200 Gaj", "Constructi": "Completed", "Foundation": 2008.0, "icon_exp": "Aanganwadi_Centre.png" }, "geometry": { "type": "Point", "coordinates": [ 75.298414, 29.285472 ] } },
{ "type": "Feature", "properties": { "Asset_Name": "Anganwadi Centre", "Lat": 29.33777, "Long": 75.28352, "Management": "Women & Child Welfare", "Village_Na": "Thuyan(12)", "Panchayat": "Thuiyan", "Village_Co": 60490.0, "Block_Name": "Bhattu Kalan", "Tehsil_Nam": "Fatehabad", "District_N": "Fatehabad", "Area_of_As": "200 Gaj", "Constructi": "Completed", "Foundation": 2007.0, "icon_exp": "Aanganwadi_Centre.png" }, "geometry": { "type": "Point", "coordinates": [ 75.28352, 29.33777 ] } },
{ "type": "Feature", "properties": { "Asset_Name": "Anganwadi Centre", "Lat": 29.321105, "Long": 75.276445, "Management": "Women & Child Welfare", "Village_Na": "Dhabi Khurd(3)", "Panchayat": "Dhabi Khurd", "Village_Co": 60491.0, "Block_Name": "Bhattu Kalan", "Tehsil_Nam": "Fatehabad", "District_N": "Fatehabad", "Area_of_As": "2800 sq ft", "Constructi": "Completed", "Foundation": 2010.0, "icon_exp": "Aanganwadi_Centre.png" }, "geometry": { "type": "Point", "coordinates": [ 75.276445, 29.321105 ] } },
{ "type": "Feature", "properties": { "Asset_Name": "Anganwadi Centre", "Lat": 29.32168, "Long": 75.27635, "Management": "Women & Child Welfare", "Village_Na": "Dhabi Khurd(3)", "Panchayat": "Dhabi Khurd", "Village_Co": 60491.0, "Block_Name": "Bhattu Kalan", "Tehsil_Nam": "Fatehabad", "District_N": "Fatehabad", "Area_of_As": "2500 sq ft", "Constructi": "Completed", "Foundation": 2010.0, "icon_exp": "Aanganwadi_Centre.png" }, "geometry": { "type": "Point", "coordinates": [ 75.27635, 29.32168 ] } },
{ "type": "Feature", "properties": { "Asset_Name": "Anganwadi Centre", "Lat": 29.322025, "Long": 75.277937, "Management": "Women & Child Welfare", "Village_Na": "Dhabi Khurd(3)", "Panchayat": "Dhabi Khurd", "Village_Co": 60491.0, "Block_Name": "Bhattu Kalan", "Tehsil_Nam": "Fatehabad", "District_N": "Fatehabad", "Area_of_As": "1200 sq ft", "Constructi": "Completed", "Foundation": 2010.0, "icon_exp": "Aanganwadi_Centre.png" }, "geometry": { "type": "Point", "coordinates": [ 75.277937, 29.322025 ] } },
{ "type": "Feature", "properties": { "Asset_Name": "Anganwadi Centre", "Lat": 29.297003, "Long": 75.341479, "Management": "Women & Child Welfare", "Village_Na": "Gadli(5)", "Panchayat": "Gadli", "Village_Co": 60495.0, "Block_Name": "Bhattu Kalan", "Tehsil_Nam": "Fatehabad", "District_N": "Fatehabad", "Area_of_As": "50 Gaj", "Constructi": "Completed", "Foundation": 2004.0, "icon_exp": "Aanganwadi_Centre.png" }, "geometry": { "type": "Point", "coordinates": [ 75.341479, 29.297003 ] } },
{ "type": "Feature", "properties": { "Asset_Name": "Anganwadi Centre", "Lat": 29.296933, "Long": 75.339433, "Management": "Women & Child Welfare", "Village_Na": "Gadli(5)", "Panchayat": "Gadli", "Village_Co": 60495.0, "Block_Name": "Bhattu Kalan", "Tehsil_Nam": "Fatehabad", "District_N": "Fatehabad", "Area_of_As": "2000 sq ft", "Constructi": "Completed", "Foundation": 2004.0, "icon_exp": "Aanganwadi_Centre.png" }, "geometry": { "type": "Point", "coordinates": [ 75.339433, 29.296933 ] } },
{ "type": "Feature", "properties": { "Asset_Name": "Anganwadi Centre", "Lat": 29.31241, "Long": 75.26051, "Management": "Women & Child Welfare", "Village_Na": "Jandwala(2)", "Panchayat": "Jandwala Baghar", "Village_Co": 60492.0, "Block_Name": "Bhattu Kalan", "Tehsil_Nam": "Fatehabad", "District_N": "Fatehabad", "Area_of_As": "1 Canal", "Constructi": "Completed", "Foundation": 2012.0, "icon_exp": "Aanganwadi_Centre.png" }, "geometry": { "type": "Point", "coordinates": [ 75.26051, 29.31241 ] } },
{ "type": "Feature", "properties": { "Asset_Name": "Anganwadi Centre", "Lat": 29.402554, "Long": 75.290375, "Management": "Women & Child Welfare", "Village_Na": "Banmandore(13)", "Panchayat": "Banmandori", "Village_Co": 60488.0, "Block_Name": "Bhattu Kalan", "Tehsil_Nam": "Fatehabad", "District_N": "Fatehabad", "Area_of_As": "100 Gaj", "Constructi": "Completed", "Foundation": 2012.0, "icon_exp": "Aanganwadi_Centre.png" }, "geometry": { "type": "Point", "coordinates": [ 75.290375, 29.402554 ] } },
{ "type": "Feature", "properties": { "Asset_Name": "Anganwadi Centre", "Lat": 29.40331, "Long": 75.29245, "Management": "Women & Child Welfare", "Village_Na": "Banmandore(13)", "Panchayat": "Banmandori", "Village_Co": 60488.0, "Block_Name": "Bhattu Kalan", "Tehsil_Nam": "Fatehabad", "District_N": "Fatehabad", "Area_of_As": "200 Gaj", "Constructi": "Completed", "Foundation": 2004.0, "icon_exp": "Aanganwadi_Centre.png" }, "geometry": { "type": "Point", "coordinates": [ 75.29245, 29.40331 ] } },
{ "type": "Feature", "properties": { "Asset_Name": "Anganwadi Centre", "Lat": 29.400033, "Long": 75.292545, "Management": "Women & Child Welfare", "Village_Na": "Banmandore(13)", "Panchayat": "Banmandori", "Village_Co": 60488.0, "Block_Name": "Bhattu Kalan", "Tehsil_Nam": "Fatehabad", "District_N": "Fatehabad", "Area_of_As": "100 Gaj", "Constructi": "Completed", "Foundation": 2010.0, "icon_exp": "Aanganwadi_Centre.png" }, "geometry": { "type": "Point", "coordinates": [ 75.292545, 29.400033 ] } },
{ "type": "Feature", "properties": { "Asset_Name": "Anganwadi Centre", "Lat": 29.40207, "Long": 75.28783, "Management": "Women & Child Welfare", "Village_Na": "Banmandore(13)", "Panchayat": "Banmandori", "Village_Co": 60488.0, "Block_Name": "Bhattu Kalan", "Tehsil_Nam": "Fatehabad", "District_N": "Fatehabad", "Area_of_As": "1 Canal", "Constructi": "Completed", "Foundation": 2003.0, "icon_exp": "Aanganwadi_Centre.png" }, "geometry": { "type": "Point", "coordinates": [ 75.28783, 29.40207 ] } },
{ "type": "Feature", "properties": { "Asset_Name": "Anganwadi Centre", "Lat": 29.400272, "Long": 75.289461, "Management": "Women & Child Welfare", "Village_Na": "Banmandore(13)", "Panchayat": "Banmandori", "Village_Co": 60488.0, "Block_Name": "Bhattu Kalan", "Tehsil_Nam": "Fatehabad", "District_N": "Fatehabad", "Area_of_As": "2000 sq ft", "Constructi": "Completed", "Foundation": 2001.0, "icon_exp": "Aanganwadi_Centre.png" }, "geometry": { "type": "Point", "coordinates": [ 75.289461, 29.400272 ] } },
{ "type": "Feature", "properties": { "Asset_Name": "Anganwadi Centre", "Lat": 29.38968, "Long": 75.45758, "Management": "Women & Child Welfare", "Village_Na": "Dhand(26)", "Panchayat": "Dhand", "Village_Co": 60506.0, "Block_Name": "Bhattu Kalan", "Tehsil_Nam": "Fatehabad", "District_N": "Fatehabad", "Area_of_As": "8 Marla", "Constructi": "Completed", "Foundation": 2004.0, "icon_exp": "Aanganwadi_Centre.png" }, "geometry": { "type": "Point", "coordinates": [ 75.45758, 29.38968 ] } },
{ "type": "Feature", "properties": { "Asset_Name": "Anganwadi Centre", "Lat": 29.39238, "Long": 75.45717, "Management": "Women & Child Welfare", "Village_Na": "Dhand(26)", "Panchayat": "Dhand", "Village_Co": 60506.0, "Block_Name": "Bhattu Kalan", "Tehsil_Nam": "Fatehabad", "District_N": "Fatehabad", "Area_of_As": "8 Marla", "Constructi": "Completed", "Foundation": 2015.0, "icon_exp": "Aanganwadi_Centre.png" }, "geometry": { "type": "Point", "coordinates": [ 75.45717, 29.39238 ] } },
{ "type": "Feature", "properties": { "Asset_Name": "Anganwadi Centre", "Lat": 29.38486, "Long": 75.45599, "Management": "Women & Child Welfare", "Village_Na": "Dhand(26)", "Panchayat": "Dhand", "Village_Co": 60506.0, "Block_Name": "Bhattu Kalan", "Tehsil_Nam": "Fatehabad", "District_N": "Fatehabad", "Area_of_As": "8 Marla", "Constructi": "Completed", "Foundation": 2015.0, "icon_exp": "Aanganwadi_Centre.png" }, "geometry": { "type": "Point", "coordinates": [ 75.45599, 29.38486 ] } },
{ "type": "Feature", "properties": { "Asset_Name": "Anganwadi Centre", "Lat": 29.38491, "Long": 75.45599, "Management": "Women & Child Welfare", "Village_Na": "Dhand(26)", "Panchayat": "Dhand", "Village_Co": 60506.0, "Block_Name": "Bhattu Kalan", "Tehsil_Nam": "Fatehabad", "District_N": "Fatehabad", "Area_of_As": "8 Marla", "Constructi": "Completed", "Foundation": 2015.0, "icon_exp": "Aanganwadi_Centre.png" }, "geometry": { "type": "Point", "coordinates": [ 75.45599, 29.38491 ] } },
{ "type": "Feature", "properties": { "Asset_Name": "Anganwadi Centre", "Lat": 29.38964, "Long": 75.45592, "Management": "Women & Child Welfare", "Village_Na": "Dhand(26)", "Panchayat": "Dhand", "Village_Co": 60506.0, "Block_Name": "Bhattu Kalan", "Tehsil_Nam": "Fatehabad", "District_N": "Fatehabad", "Area_of_As": "50 Gaj", "Constructi": "Completed", "Foundation": 2002.0, "icon_exp": "Aanganwadi_Centre.png" }, "geometry": { "type": "Point", "coordinates": [ 75.45592, 29.38964 ] } },
{ "type": "Feature", "properties": { "Asset_Name": "Anganwadi Centre", "Lat": 29.39637, "Long": 75.43383, "Management": "Women & Child Welfare", "Village_Na": "Banawali(27)", "Panchayat": "Banawali", "Village_Co": 60505.0, "Block_Name": "Bhattu Kalan", "Tehsil_Nam": "Fatehabad", "District_N": "Fatehabad", "Area_of_As": "8 Marla", "Constructi": "Completed", "Foundation": 2012.0, "icon_exp": "Aanganwadi_Centre.png" }, "geometry": { "type": "Point", "coordinates": [ 75.43383, 29.39637 ] } },
{ "type": "Feature", "properties": { "Asset_Name": "Anganwadi Centre", "Lat": 29.39498, "Long": 75.43382, "Management": "Women & Child Welfare", "Village_Na": "Banawali(27)", "Panchayat": "Banawali", "Village_Co": 60505.0, "Block_Name": "Bhattu Kalan", "Tehsil_Nam": "Fatehabad", "District_N": "Fatehabad", "Area_of_As": "8 Marla", "Constructi": "Completed", "Foundation": 2004.0, "icon_exp": "Aanganwadi_Centre.png" }, "geometry": { "type": "Point", "coordinates": [ 75.43382, 29.39498 ] } },
{ "type": "Feature", "properties": { "Asset_Name": "Anganwadi Centre", "Lat": 29.39191, "Long": 75.43584, "Management": "Women & Child Welfare", "Village_Na": "Banawali(27)", "Panchayat": "Banawali", "Village_Co": 60505.0, "Block_Name": "Bhattu Kalan", "Tehsil_Nam": "Fatehabad", "District_N": "Fatehabad", "Area_of_As": "4 Marla", "Constructi": "Completed", "Foundation": 2012.0, "icon_exp": "Aanganwadi_Centre.png" }, "geometry": { "type": "Point", "coordinates": [ 75.43584, 29.39191 ] } },
{ "type": "Feature", "properties": { "Asset_Name": "Anganwadi Centre", "Lat": 29.39814, "Long": 75.43782, "Management": "Women & Child Welfare", "Village_Na": "Banawali(27)", "Panchayat": "Banawali", "Village_Co": 60505.0, "Block_Name": "Bhattu Kalan", "Tehsil_Nam": "Fatehabad", "District_N": "Fatehabad", "Area_of_As": "8 Marla", "Constructi": "Completed", "Foundation": 2015.0, "icon_exp": "Aanganwadi_Centre.png" }, "geometry": { "type": "Point", "coordinates": [ 75.43782, 29.39814 ] } },
{ "type": "Feature", "properties": { "Asset_Name": "Anganwadi Centre", "Lat": 29.40011, "Long": 75.39989, "Management": "Women & Child Welfare", "Village_Na": "Kirdhan(28)", "Panchayat": "Kridhan", "Village_Co": 60503.0, "Block_Name": "Bhattu Kalan", "Tehsil_Nam": "Fatehabad", "District_N": "Fatehabad", "Area_of_As": "8 Marla", "Constructi": "Completed", "Foundation": 2006.0, "icon_exp": "Aanganwadi_Centre.png" }, "geometry": { "type": "Point", "coordinates": [ 75.39989, 29.40011 ] } },
{ "type": "Feature", "properties": { "Asset_Name": "Anganwadi Centre", "Lat": 29.40381, "Long": 75.40264, "Management": "Women & Child Welfare", "Village_Na": "Kirdhan(28)", "Panchayat": "Kridhan", "Village_Co": 60503.0, "Block_Name": "Bhattu Kalan", "Tehsil_Nam": "Fatehabad", "District_N": "Fatehabad", "Area_of_As": "8 Marla", "Constructi": "Completed", "Foundation": 2012.0, "icon_exp": "Aanganwadi_Centre.png" }, "geometry": { "type": "Point", "coordinates": [ 75.40264, 29.40381 ] } },
{ "type": "Feature", "properties": { "Asset_Name": "Anganwadi Centre", "Lat": 29.40524, "Long": 75.39861, "Management": "Women & Child Welfare", "Village_Na": "Kirdhan(28)", "Panchayat": "Kridhan", "Village_Co": 60503.0, "Block_Name": "Bhattu Kalan", "Tehsil_Nam": "Fatehabad", "District_N": "Fatehabad", "Area_of_As": "8 Marla", "Constructi": "Completed", "Foundation": 2004.0, "icon_exp": "Aanganwadi_Centre.png" }, "geometry": { "type": "Point", "coordinates": [ 75.39861, 29.40524 ] } },
{ "type": "Feature", "properties": { "Asset_Name": "Anganwadi Centre", "Lat": 29.40707, "Long": 75.40214, "Management": "Women & Child Welfare", "Village_Na": "Kirdhan(28)", "Panchayat": "Kridhan", "Village_Co": 60503.0, "Block_Name": "Bhattu Kalan", "Tehsil_Nam": "Fatehabad", "District_N": "Fatehabad", "Area_of_As": "4 Marla", "Constructi": "Completed", "Foundation": 2012.0, "icon_exp": "Aanganwadi_Centre.png" }, "geometry": { "type": "Point", "coordinates": [ 75.40214, 29.40707 ] } },
{ "type": "Feature", "properties": { "Asset_Name": "Anganwadi Centre", "Lat": 29.43169, "Long": 75.40332, "Management": "Women & Child Welfare", "Village_Na": "Sirdhan(29)", "Panchayat": "Sirdhan", "Village_Co": 60502.0, "Block_Name": "Bhattu Kalan", "Tehsil_Nam": "Fatehabad", "District_N": "Fatehabad", "Area_of_As": "6 Marla", "Constructi": "Completed", "Foundation": 2008.0, "icon_exp": "Aanganwadi_Centre.png" }, "geometry": { "type": "Point", "coordinates": [ 75.40332, 29.43169 ] } },
{ "type": "Feature", "properties": { "Asset_Name": "Anganwadi Centre", "Lat": 29.43136, "Long": 75.40285, "Management": "Women & Child Welfare", "Village_Na": "Sirdhan(29)", "Panchayat": "Sirdhan", "Village_Co": 60502.0, "Block_Name": "Bhattu Kalan", "Tehsil_Nam": "Fatehabad", "District_N": "Fatehabad", "Area_of_As": "8 Marla", "Constructi": "Completed", "Foundation": 2012.0, "icon_exp": "Aanganwadi_Centre.png" }, "geometry": { "type": "Point", "coordinates": [ 75.40285, 29.43136 ] } },
{ "type": "Feature", "properties": { "Asset_Name": "Anganwadi Centre", "Lat": 29.557421, "Long": 75.778515, "Management": "Women & Child Welfare", "Village_Na": "Sanchla(70)", "Panchayat": "Sanchala", "Village_Co": 60409.0, "Block_Name": "Bhuna", "Tehsil_Nam": "Tohana", "District_N": "Fatehabad", "Area_of_As": "1250 sq ft", "Constructi": "Completed", "Foundation": 2011.0, "icon_exp": "Aanganwadi_Centre.png" }, "geometry": { "type": "Point", "coordinates": [ 75.778515, 29.557421 ] } },
{ "type": "Feature", "properties": { "Asset_Name": "Anganwadi Centre", "Lat": 29.556395, "Long": 75.778226, "Management": "Women & Child Welfare", "Village_Na": "Sanchla(70)", "Panchayat": "Sanchala", "Village_Co": 60409.0, "Block_Name": "Bhuna", "Tehsil_Nam": "Tohana", "District_N": "Fatehabad", "Area_of_As": "2800 sq ft", "Constructi": "Completed", "Foundation": 2012.0, "icon_exp": "Aanganwadi_Centre.png" }, "geometry": { "type": "Point", "coordinates": [ 75.778226, 29.556395 ] } },
{ "type": "Feature", "properties": { "Asset_Name": "Anganwadi Centre", "Lat": 29.573863, "Long": 75.799446, "Management": "Women & Child Welfare", "Village_Na": "Bosti(69)", "Panchayat": "Bosti", "Village_Co": 60408.0, "Block_Name": "Bhuna", "Tehsil_Nam": "Tohana", "District_N": "Fatehabad", "Area_of_As": "2 Canal", "Constructi": "Completed", "Foundation": 2011.0, "icon_exp": "Aanganwadi_Centre.png" }, "geometry": { "type": "Point", "coordinates": [ 75.799446, 29.573863 ] } },
{ "type": "Feature", "properties": { "Asset_Name": "Anganwadi Centre", "Lat": 29.594591, "Long": 75.784028, "Management": "Women & Child Welfare", "Village_Na": "Bawan(72)", "Panchayat": "Bawan", "Village_Co": 60412.0, "Block_Name": "Bhuna", "Tehsil_Nam": "Fatehabad", "District_N": "Fatehabad", "Area_of_As": "2500 sq ft", "Constructi": "Completed", "Foundation": 2012.0, "icon_exp": "Aanganwadi_Centre.png" }, "geometry": { "type": "Point", "coordinates": [ 75.784028, 29.594591 ] } },
{ "type": "Feature", "properties": { "Asset_Name": "Anganwadi Centre", "Lat": 29.48734, "Long": 75.67722, "Management": "Women & Child Welfare", "Village_Na": "Mochiwali(62)", "Panchayat": "Mochiwali", "Village_Co": 60421.0, "Block_Name": "Bhuna", "Tehsil_Nam": "Fatehabad", "District_N": "Fatehabad", "Area_of_As": "8 Marla", "Constructi": "Completed", "Foundation": 2008.0, "icon_exp": "Aanganwadi_Centre.png" }, "geometry": { "type": "Point", "coordinates": [ 75.67722, 29.48734 ] } },
{ "type": "Feature", "properties": { "Asset_Name": "Anganwadi Centre", "Lat": 29.49067, "Long": 75.67596, "Management": "Women & Child Welfare", "Village_Na": "Mochiwali(62)", "Panchayat": "Mochiwali", "Village_Co": 60421.0, "Block_Name": "Bhuna", "Tehsil_Nam": "Fatehabad", "District_N": "Fatehabad", "Area_of_As": "8 Marla", "Constructi": "Completed", "Foundation": 2016.0, "icon_exp": "Aanganwadi_Centre.png" }, "geometry": { "type": "Point", "coordinates": [ 75.67596, 29.49067 ] } },
{ "type": "Feature", "properties": { "Asset_Name": "Anganwadi Centre", "Lat": 29.49009, "Long": 75.6739, "Management": "Women & Child Welfare", "Village_Na": "Mochiwali(62)", "Panchayat": "Mochiwali", "Village_Co": 60421.0, "Block_Name": "Bhuna", "Tehsil_Nam": "Fatehabad", "District_N": "Fatehabad", "Area_of_As": "8 Marla", "Constructi": "Completed", "Foundation": 2012.0, "icon_exp": "Aanganwadi_Centre.png" }, "geometry": { "type": "Point", "coordinates": [ 75.6739, 29.49009 ] } },
{ "type": "Feature", "properties": { "Asset_Name": "Anganwadi Centre", "Lat": 29.48105, "Long": 75.67073, "Management": "Women & Child Welfare", "Village_Na": "Chaubara(61)", "Panchayat": "Chaubara", "Village_Co": 60420.0, "Block_Name": "Bhuna", "Tehsil_Nam": "Fatehabad", "District_N": "Fatehabad", "Area_of_As": "4 Marla", "Constructi": "Completed", "Foundation": 2008.0, "icon_exp": "Aanganwadi_Centre.png" }, "geometry": { "type": "Point", "coordinates": [ 75.67073, 29.48105 ] } },
{ "type": "Feature", "properties": { "Asset_Name": "Anganwadi Centre", "Lat": 29.48134, "Long": 75.66676, "Management": "Women & Child Welfare", "Village_Na": "Chaubara(61)", "Panchayat": "Chaubara", "Village_Co": 60420.0, "Block_Name": "Bhuna", "Tehsil_Nam": "Fatehabad", "District_N": "Fatehabad", "Area_of_As": "6 Marla", "Constructi": "Abondoned", "Foundation": 2000.0, "icon_exp": "Aanganwadi_Centre.png" }, "geometry": { "type": "Point", "coordinates": [ 75.66676, 29.48134 ] } },
{ "type": "Feature", "properties": { "Asset_Name": "Anganwadi Centre", "Lat": 29.59786, "Long": 75.64175, "Management": "Women & Child Welfare", "Village_Na": "Ghotru(82)", "Panchayat": "Ghotru", "Village_Co": 60433.0, "Block_Name": "Bhuna", "Tehsil_Nam": "Fatehabad", "District_N": "Fatehabad", "Area_of_As": "8 Marla", "Constructi": "Completed", "Foundation": 2008.0, "icon_exp": "Aanganwadi_Centre.png" }, "geometry": { "type": "Point", "coordinates": [ 75.64175, 29.59786 ] } },
{ "type": "Feature", "properties": { "Asset_Name": "Anganwadi Centre", "Lat": 29.59744, "Long": 75.67139, "Management": "Women & Child Welfare", "Village_Na": "Dhaulu(78)", "Panchayat": "Dholu", "Village_Co": 60432.0, "Block_Name": "Bhuna", "Tehsil_Nam": "Fatehabad", "District_N": "Fatehabad", "Area_of_As": "600 Gaj", "Constructi": "Completed", "Foundation": 2015.0, "icon_exp": "Aanganwadi_Centre.png" }, "geometry": { "type": "Point", "coordinates": [ 75.67139, 29.59744 ] } },
{ "type": "Feature", "properties": { "Asset_Name": "Anganwadi Centre", "Lat": 29.59456, "Long": 75.67374, "Management": "Women & Child Welfare", "Village_Na": "Dhaulu(78)", "Panchayat": "Dholu", "Village_Co": 60432.0, "Block_Name": "Bhuna", "Tehsil_Nam": "Fatehabad", "District_N": "Fatehabad", "Area_of_As": "100 Gaj", "Constructi": "Completed", "Foundation": 2010.0, "icon_exp": "Aanganwadi_Centre.png" }, "geometry": { "type": "Point", "coordinates": [ 75.67374, 29.59456 ] } },
{ "type": "Feature", "properties": { "Asset_Name": "Anganwadi Centre", "Lat": 29.61959, "Long": 75.67291, "Management": "Women & Child Welfare", "Village_Na": "Digoi(80)", "Panchayat": "Digoh", "Village_Co": 60431.0, "Block_Name": "Bhuna", "Tehsil_Nam": "Fatehabad", "District_N": "Fatehabad", "Area_of_As": "2 Marla", "Constructi": "Completed", "Foundation": 2003.0, "icon_exp": "Aanganwadi_Centre.png" }, "geometry": { "type": "Point", "coordinates": [ 75.67291, 29.61959 ] } },
{ "type": "Feature", "properties": { "Asset_Name": "Anganwadi Centre", "Lat": 29.52402, "Long": 75.77279, "Management": "Women & Child Welfare", "Village_Na": "Khasa Pathanana(64)", "Panchayat": "Dhani Gopal", "Village_Co": 60416.0, "Block_Name": "Bhuna", "Tehsil_Nam": "Fatehabad", "District_N": "Fatehabad", "Area_of_As": "6 Marla", "Constructi": "Completed", "Foundation": 2011.0, "icon_exp": "Aanganwadi_Centre.png" }, "geometry": { "type": "Point", "coordinates": [ 75.77279, 29.52402 ] } },
{ "type": "Feature", "properties": { "Asset_Name": "Anganwadi Centre", "Lat": 29.52447, "Long": 75.77371, "Management": "Women & Child Welfare", "Village_Na": "Khasa Pathanana(64)", "Panchayat": "Dhani Gopal", "Village_Co": 60416.0, "Block_Name": "Bhuna", "Tehsil_Nam": "Fatehabad", "District_N": "Fatehabad", "Area_of_As": "8 Marla", "Constructi": "Completed", "Foundation": 2011.0, "icon_exp": "Aanganwadi_Centre.png" }, "geometry": { "type": "Point", "coordinates": [ 75.77371, 29.52447 ] } },
{ "type": "Feature", "properties": { "Asset_Name": "Anganwadi Centre", "Lat": 29.52069, "Long": 75.77061, "Management": "Women & Child Welfare", "Village_Na": "Khasa Pathanana(64)", "Panchayat": "Dhani Gopal", "Village_Co": 60416.0, "Block_Name": "Bhuna", "Tehsil_Nam": "Fatehabad", "District_N": "Fatehabad", "Area_of_As": "4 Marla", "Constructi": "Completed", "Foundation": 1987.0, "icon_exp": "Aanganwadi_Centre.png" }, "geometry": { "type": "Point", "coordinates": [ 75.77061, 29.52069 ] } },
{ "type": "Feature", "properties": { "Asset_Name": "Anganwadi Centre", "Lat": 29.57952, "Long": 75.76448, "Management": "Women & Child Welfare", "Village_Na": "Bhatoo(71)", "Panchayat": "Bhatoo", "Village_Co": 60410.0, "Block_Name": "Bhuna", "Tehsil_Nam": "Tohana", "District_N": "Fatehabad", "Area_of_As": "4 Marla", "Constructi": "Completed", "Foundation": 2005.0, "icon_exp": "Aanganwadi_Centre.png" }, "geometry": { "type": "Point", "coordinates": [ 75.76448, 29.57952 ] } },
{ "type": "Feature", "properties": { "Asset_Name": "Anganwadi Centre", "Lat": 29.49471, "Long": 75.71111, "Management": "Women & Child Welfare", "Village_Na": "Baijalpur(186)", "Panchayat": "Baijalpur", "Village_Co": 60425.0, "Block_Name": "Bhuna", "Tehsil_Nam": "Fatehabad", "District_N": "Fatehabad", "Area_of_As": "25 Foot", "Constructi": "Completed", "Foundation": 2015.0, "icon_exp": "Aanganwadi_Centre.png" }, "geometry": { "type": "Point", "coordinates": [ 75.71111, 29.49471 ] } },
{ "type": "Feature", "properties": { "Asset_Name": "Anganwadi Centre", "Lat": 29.49329, "Long": 75.70441, "Management": "Women & Child Welfare", "Village_Na": "Baijalpur(186)", "Panchayat": "Baijalpur", "Village_Co": 60425.0, "Block_Name": "Bhuna", "Tehsil_Nam": "Fatehabad", "District_N": "Fatehabad", "Area_of_As": "4 Marla", "Constructi": "Completed", "Foundation": 2011.0, "icon_exp": "Aanganwadi_Centre.png" }, "geometry": { "type": "Point", "coordinates": [ 75.70441, 29.49329 ] } },
{ "type": "Feature", "properties": { "Asset_Name": "Anganwadi Centre", "Lat": 29.59784, "Long": 75.70476, "Management": "Women & Child Welfare", "Village_Na": "Tibbi(77)", "Panchayat": "Tibbi", "Village_Co": 60427.0, "Block_Name": "Bhuna", "Tehsil_Nam": "Fatehabad", "District_N": "Fatehabad", "Area_of_As": "6 Marla", "Constructi": "Completed", "Foundation": 2011.0, "icon_exp": "Aanganwadi_Centre.png" }, "geometry": { "type": "Point", "coordinates": [ 75.70476, 29.59784 ] } },
{ "type": "Feature", "properties": { "Asset_Name": "Anganwadi Centre", "Lat": 29.59782, "Long": 75.70431, "Management": "Women & Child Welfare", "Village_Na": "Tibbi(77)", "Panchayat": "Tibbi", "Village_Co": 60427.0, "Block_Name": "Bhuna", "Tehsil_Nam": "Fatehabad", "District_N": "Fatehabad", "Area_of_As": "50 Gaj", "Constructi": "Completed", "Foundation": 2012.0, "icon_exp": "Aanganwadi_Centre.png" }, "geometry": { "type": "Point", "coordinates": [ 75.70431, 29.59782 ] } },
{ "type": "Feature", "properties": { "Asset_Name": "Anganwadi Centre", "Lat": 29.59085, "Long": 75.71384, "Management": "Women & Child Welfare", "Village_Na": "Tibbi(77)", "Panchayat": "Tibbi", "Village_Co": 60427.0, "Block_Name": "Bhuna", "Tehsil_Nam": "Fatehabad", "District_N": "Fatehabad", "Area_of_As": "3 Marla", "Constructi": "Completed", "Foundation": 2014.0, "icon_exp": "Aanganwadi_Centre.png" }, "geometry": { "type": "Point", "coordinates": [ 75.71384, 29.59085 ] } },
{ "type": "Feature", "properties": { "Asset_Name": "Anganwadi Centre", "Lat": 29.57718, "Long": 75.69969, "Management": "Women & Child Welfare", "Village_Na": "Bhuna(63)", "Panchayat": "Sinthala", "Village_Co": 60415.0, "Block_Name": "Bhuna", "Tehsil_Nam": "Fatehabad", "District_N": "Fatehabad", "Area_of_As": "6 Marla", "Constructi": "Completed", "Foundation": 2006.0, "icon_exp": "Aanganwadi_Centre.png" }, "geometry": { "type": "Point", "coordinates": [ 75.69969, 29.57718 ] } },
{ "type": "Feature", "properties": { "Asset_Name": "Anganwadi Centre", "Lat": 29.45751, "Long": 75.72509, "Management": "Women & Child Welfare", "Village_Na": "Dehman(60)", "Panchayat": "Dehman", "Village_Co": 60418.0, "Block_Name": "Bhuna", "Tehsil_Nam": "Fatehabad", "District_N": "Fatehabad", "Area_of_As": "4 Marla", "Constructi": "Completed", "Foundation": 2010.0, "icon_exp": "Aanganwadi_Centre.png" }, "geometry": { "type": "Point", "coordinates": [ 75.72509, 29.45751 ] } },
{ "type": "Feature", "properties": { "Asset_Name": "Anganwadi Centre", "Lat": 29.45119, "Long": 75.72728, "Management": "Women & Child Welfare", "Village_Na": "Dehman(60)", "Panchayat": "Dehman", "Village_Co": 60418.0, "Block_Name": "Bhuna", "Tehsil_Nam": "Fatehabad", "District_N": "Fatehabad", "Area_of_As": "4 Marla", "Constructi": "Completed", "Foundation": 1993.0, "icon_exp": "Aanganwadi_Centre.png" }, "geometry": { "type": "Point", "coordinates": [ 75.72728, 29.45119 ] } },
{ "type": "Feature", "properties": { "Asset_Name": "Anganwadi Centre", "Lat": 29.62629, "Long": 75.71496, "Management": "Women & Child Welfare", "Village_Na": "Kheri Rohan", "Panchayat": "Kheri Rohan", "Village_Co": 60429.0, "Block_Name": "Bhuna", "Tehsil_Nam": "Fatehabad", "District_N": "Fatehabad", "Area_of_As": "6 Marla", "Constructi": "Completed", "Foundation": 1988.0, "icon_exp": "Aanganwadi_Centre.png" }, "geometry": { "type": "Point", "coordinates": [ 75.71496, 29.62629 ] } },
{ "type": "Feature", "properties": { "Asset_Name": "Anganwadi Centre", "Lat": 29.52267, "Long": 75.61864, "Management": "Women & Child Welfare", "Village_Na": "Chandrawal(90)", "Panchayat": "Chandrawal", "Village_Co": 60424.0, "Block_Name": "Bhuna", "Tehsil_Nam": "Fatehabad", "District_N": "Fatehabad", "Area_of_As": "1.5 Canal", "Constructi": "Completed", "Foundation": 2013.0, "icon_exp": "Aanganwadi_Centre.png" }, "geometry": { "type": "Point", "coordinates": [ 75.61864, 29.52267 ] } },
{ "type": "Feature", "properties": { "Asset_Name": "Anganwadi Centre", "Lat": 29.51828, "Long": 75.61936, "Management": "Women & Child Welfare", "Village_Na": "Chandrawal(90)", "Panchayat": "Chandrawal", "Village_Co": 60424.0, "Block_Name": "Bhuna", "Tehsil_Nam": "Fatehabad", "District_N": "Fatehabad", "Area_of_As": "6 Marla", "Constructi": "Completed", "Foundation": 1996.0, "icon_exp": "Aanganwadi_Centre.png" }, "geometry": { "type": "Point", "coordinates": [ 75.61936, 29.51828 ] } },
{ "type": "Feature", "properties": { "Asset_Name": "Anganwadi Centre", "Lat": 29.51342, "Long": 75.64729, "Management": "Women & Child Welfare", "Village_Na": "Jandli Khurd(89)", "Panchayat": "Jandli Khurd", "Village_Co": 60423.0, "Block_Name": "Bhuna", "Tehsil_Nam": "Fatehabad", "District_N": "Fatehabad", "Area_of_As": "50 Gaj", "Constructi": "Completed", "Foundation": 2016.0, "icon_exp": "Aanganwadi_Centre.png" }, "geometry": { "type": "Point", "coordinates": [ 75.64729, 29.51342 ] } },
{ "type": "Feature", "properties": { "Asset_Name": "Anganwadi Centre", "Lat": 29.51194, "Long": 75.64241, "Management": "Women & Child Welfare", "Village_Na": "Jandli Khurd(89)", "Panchayat": "Jandli Khurd", "Village_Co": 60423.0, "Block_Name": "Bhuna", "Tehsil_Nam": "Fatehabad", "District_N": "Fatehabad", "Area_of_As": "4 Marla", "Constructi": "Completed", "Foundation": 2015.0, "icon_exp": "Aanganwadi_Centre.png" }, "geometry": { "type": "Point", "coordinates": [ 75.64241, 29.51194 ] } },
{ "type": "Feature", "properties": { "Asset_Name": "Anganwadi Centre", "Lat": 29.49655, "Long": 75.63516, "Management": "Women & Child Welfare", "Village_Na": "Jandli Kalan(91)", "Panchayat": "Jandli Kalan", "Village_Co": 60422.0, "Block_Name": "Bhuna", "Tehsil_Nam": "Fatehabad", "District_N": "Fatehabad", "Area_of_As": "6 Marla", "Constructi": "Completed", "Foundation": 2015.0, "icon_exp": "Aanganwadi_Centre.png" }, "geometry": { "type": "Point", "coordinates": [ 75.63516, 29.49655 ] } },
{ "type": "Feature", "properties": { "Asset_Name": "Anganwadi Centre", "Lat": 29.49262, "Long": 75.62901, "Management": "Women & Child Welfare", "Village_Na": "Jandli Kalan(91)", "Panchayat": "Jandli Kalan", "Village_Co": 60422.0, "Block_Name": "Bhuna", "Tehsil_Nam": "Fatehabad", "District_N": "Fatehabad", "Area_of_As": "8 Marla", "Constructi": "Completed", "Foundation": 2016.0, "icon_exp": "Aanganwadi_Centre.png" }, "geometry": { "type": "Point", "coordinates": [ 75.62901, 29.49262 ] } },
{ "type": "Feature", "properties": { "Asset_Name": "Anganwadi Centre", "Lat": 29.49153, "Long": 75.63345, "Management": "Women & Child Welfare", "Village_Na": "Jandli Kalan(91)", "Panchayat": "Jandli Kalan", "Village_Co": 60422.0, "Block_Name": "Bhuna", "Tehsil_Nam": "Fatehabad", "District_N": "Fatehabad", "Area_of_As": "8 Marla", "Constructi": "Completed", "Foundation": 2014.0, "icon_exp": "Aanganwadi_Centre.png" }, "geometry": { "type": "Point", "coordinates": [ 75.63345, 29.49153 ] } },
{ "type": "Feature", "properties": { "Asset_Name": "Anganwadi Centre", "Lat": 29.49436, "Long": 75.63391, "Management": "Women & Child Welfare", "Village_Na": "Jandli Kalan(91)", "Panchayat": "Jandli Kalan", "Village_Co": 60422.0, "Block_Name": "Bhuna", "Tehsil_Nam": "Fatehabad", "District_N": "Fatehabad", "Area_of_As": "50 Gaj", "Constructi": "Completed", "Foundation": 1993.0, "icon_exp": "Aanganwadi_Centre.png" }, "geometry": { "type": "Point", "coordinates": [ 75.63391, 29.49436 ] } },
{ "type": "Feature", "properties": { "Asset_Name": "Anganwadi Centre", "Lat": 29.56495, "Long": 75.73618, "Management": "Women & Child Welfare", "Village_Na": "Dullat(76)", "Panchayat": "Dult", "Village_Co": 60414.0, "Block_Name": "Bhuna", "Tehsil_Nam": "Fatehabad", "District_N": "Fatehabad", "Area_of_As": "8 Marla", "Constructi": "Completed", "Foundation": 2012.0, "icon_exp": "Aanganwadi_Centre.png" }, "geometry": { "type": "Point", "coordinates": [ 75.73618, 29.56495 ] } },
{ "type": "Feature", "properties": { "Asset_Name": "Anganwadi Centre", "Lat": 29.62455, "Long": 75.72466, "Management": "Women & Child Welfare", "Village_Na": "Lehrian(73)", "Panchayat": "Lehrian", "Village_Co": 60413.0, "Block_Name": "Bhuna", "Tehsil_Nam": "Fatehabad", "District_N": "Fatehabad", "Area_of_As": "4 Marla", "Constructi": "Completed", "Foundation": 1995.0, "icon_exp": "Aanganwadi_Centre.png" }, "geometry": { "type": "Point", "coordinates": [ 75.72466, 29.62455 ] } },
{ "type": "Feature", "properties": { "Asset_Name": "Anganwadi Centre", "Lat": 29.62332, "Long": 75.72401, "Management": "Women & Child Welfare", "Village_Na": "Lehrian(73)", "Panchayat": "Lehrian", "Village_Co": 60413.0, "Block_Name": "Bhuna", "Tehsil_Nam": "Fatehabad", "District_N": "Fatehabad", "Area_of_As": "50 Gaj", "Constructi": "Completed", "Foundation": 2012.0, "icon_exp": "Aanganwadi_Centre.png" }, "geometry": { "type": "Point", "coordinates": [ 75.72401, 29.62332 ] } },
{ "type": "Feature", "properties": { "Asset_Name": "Anganwadi Centre", "Lat": 29.62291, "Long": 75.72887, "Management": "Women & Child Welfare", "Village_Na": "Lehrian(73)", "Panchayat": "Lehrian", "Village_Co": 60413.0, "Block_Name": "Bhuna", "Tehsil_Nam": "Fatehabad", "District_N": "Fatehabad", "Area_of_As": "50 Gaj", "Constructi": "Completed", "Foundation": 2011.0, "icon_exp": "Aanganwadi_Centre.png" }, "geometry": { "type": "Point", "coordinates": [ 75.72887, 29.62291 ] } },
{ "type": "Feature", "properties": { "Asset_Name": "Anganwadi Centre", "Lat": 29.57067, "Long": 75.65199, "Management": "Women & Child Welfare", "Village_Na": "Nadhauri(88)", "Panchayat": "Nadhori", "Village_Co": 60426.0, "Block_Name": "Bhuna", "Tehsil_Nam": "Fatehabad", "District_N": "Fatehabad", "Area_of_As": "50 Gaj", "Constructi": "Completed", "Foundation": 2005.0, "icon_exp": "Aanganwadi_Centre.png" }, "geometry": { "type": "Point", "coordinates": [ 75.65199, 29.57067 ] } },
{ "type": "Feature", "properties": { "Asset_Name": "Anganwadi Centre", "Lat": 29.56508, "Long": 75.65255, "Management": "Women & Child Welfare", "Village_Na": "Nadhauri(88)", "Panchayat": "Nadhori", "Village_Co": 60426.0, "Block_Name": "Bhuna", "Tehsil_Nam": "Fatehabad", "District_N": "Fatehabad", "Area_of_As": "8 Marla", "Constructi": "Completed", "Foundation": 1997.0, "icon_exp": "Aanganwadi_Centre.png" }, "geometry": { "type": "Point", "coordinates": [ 75.65255, 29.56508 ] } },
{ "type": "Feature", "properties": { "Asset_Name": "Anganwadi Centre", "Lat": 29.58401, "Long": 75.64011, "Management": "Women & Child Welfare", "Village_Na": "Nadhauri(88)", "Panchayat": "Nadhori", "Village_Co": 60426.0, "Block_Name": "Bhuna", "Tehsil_Nam": "Fatehabad", "District_N": "Fatehabad", "Area_of_As": "50 Gaj", "Constructi": "Completed", "Foundation": 2010.0, "icon_exp": "Aanganwadi_Centre.png" }, "geometry": { "type": "Point", "coordinates": [ 75.64011, 29.58401 ] } },
{ "type": "Feature", "properties": { "Asset_Name": "Anganwadi Centre", "Lat": 29.54851, "Long": 75.65571, "Management": "Women & Child Welfare", "Village_Na": "Nadhauri(88)", "Panchayat": "Nadhori", "Village_Co": 60426.0, "Block_Name": "Bhuna", "Tehsil_Nam": "Fatehabad", "District_N": "Fatehabad", "Area_of_As": "50 Gaj", "Constructi": "Completed", "Foundation": 2010.0, "icon_exp": "Aanganwadi_Centre.png" }, "geometry": { "type": "Point", "coordinates": [ 75.65571, 29.54851 ] } },
{ "type": "Feature", "properties": { "Asset_Name": "Anganwadi Centre", "Lat": 29.55929, "Long": 75.64308, "Management": "Women & Child Welfare", "Village_Na": "Nadhauri(88)", "Panchayat": "Nadhori", "Village_Co": 60426.0, "Block_Name": "Bhuna", "Tehsil_Nam": "Fatehabad", "District_N": "Fatehabad", "Area_of_As": "50 Gaj", "Constructi": "Completed", "Foundation": 2010.0, "icon_exp": "Aanganwadi_Centre.png" }, "geometry": { "type": "Point", "coordinates": [ 75.64308, 29.55929 ] } },
{ "type": "Feature", "properties": { "Asset_Name": "Anganwadi Centre", "Lat": 29.44957, "Long": 75.66588, "Management": "Women & Child Welfare", "Village_Na": "Gorakhpur(52)", "Panchayat": "Gorakhpur", "Village_Co": 60419.0, "Block_Name": "Bhuna", "Tehsil_Nam": "Fatehabad", "District_N": "Fatehabad", "Area_of_As": "8 Marla", "Constructi": "Completed", "Foundation": 2016.0, "icon_exp": "Aanganwadi_Centre.png" }, "geometry": { "type": "Point", "coordinates": [ 75.66588, 29.44957 ] } },
{ "type": "Feature", "properties": { "Asset_Name": "Anganwadi Centre", "Lat": 29.45041, "Long": 75.67587, "Management": "Women & Child Welfare", "Village_Na": "Gorakhpur(52)", "Panchayat": "Gorakhpur", "Village_Co": 60419.0, "Block_Name": "Bhuna", "Tehsil_Nam": "Fatehabad", "District_N": "Fatehabad", "Area_of_As": "8 Marla", "Constructi": "Completed", "Foundation": 2015.0, "icon_exp": "Aanganwadi_Centre.png" }, "geometry": { "type": "Point", "coordinates": [ 75.67587, 29.45041 ] } },
{ "type": "Feature", "properties": { "Asset_Name": "Anganwadi Centre", "Lat": 29.44919, "Long": 75.67622, "Management": "Women & Child Welfare", "Village_Na": "Gorakhpur(52)", "Panchayat": "Gorakhpur", "Village_Co": 60419.0, "Block_Name": "Bhuna", "Tehsil_Nam": "Fatehabad", "District_N": "Fatehabad", "Area_of_As": "8 Marla", "Constructi": "Completed", "Foundation": 2004.0, "icon_exp": "Aanganwadi_Centre.png" }, "geometry": { "type": "Point", "coordinates": [ 75.67622, 29.44919 ] } },
{ "type": "Feature", "properties": { "Asset_Name": "Anganwadi Centre", "Lat": 29.44757, "Long": 75.66724, "Management": "Women & Child Welfare", "Village_Na": "Gorakhpur(52)", "Panchayat": "Gorakhpur", "Village_Co": 60419.0, "Block_Name": "Bhuna", "Tehsil_Nam": "Fatehabad", "District_N": "Fatehabad", "Area_of_As": "2 Canal", "Constructi": "Completed", "Foundation": 2006.0, "icon_exp": "Aanganwadi_Centre.png" }, "geometry": { "type": "Point", "coordinates": [ 75.66724, 29.44757 ] } },
{ "type": "Feature", "properties": { "Asset_Name": "Anganwadi Centre", "Lat": 29.44585, "Long": 75.66849, "Management": "Women & Child Welfare", "Village_Na": "Gorakhpur(52)", "Panchayat": "Gorakhpur", "Village_Co": 60419.0, "Block_Name": "Bhuna", "Tehsil_Nam": "Fatehabad", "District_N": "Fatehabad", "Area_of_As": "0.5 Canal", "Constructi": "Completed", "Foundation": 2004.0, "icon_exp": "Aanganwadi_Centre.png" }, "geometry": { "type": "Point", "coordinates": [ 75.66849, 29.44585 ] } },
{ "type": "Feature", "properties": { "Asset_Name": "Anganwadi Centre", "Lat": 29.44481, "Long": 75.66918, "Management": "Women & Child Welfare", "Village_Na": "Gorakhpur(52)", "Panchayat": "Gorakhpur", "Village_Co": 60419.0, "Block_Name": "Bhuna", "Tehsil_Nam": "Fatehabad", "District_N": "Fatehabad", "Area_of_As": "50 Gaj", "Constructi": "Completed", "Foundation": 1987.0, "icon_exp": "Aanganwadi_Centre.png" }, "geometry": { "type": "Point", "coordinates": [ 75.66918, 29.44481 ] } },
{ "type": "Feature", "properties": { "Asset_Name": "Anganwadi Centre", "Lat": 29.44574, "Long": 75.67011, "Management": "Women & Child Welfare", "Village_Na": "Gorakhpur(52)", "Panchayat": "Gorakhpur", "Village_Co": 60419.0, "Block_Name": "Bhuna", "Tehsil_Nam": "Fatehabad", "District_N": "Fatehabad", "Area_of_As": "50 Gaj", "Constructi": "Completed", "Foundation": 1998.0, "icon_exp": "Aanganwadi_Centre.png" }, "geometry": { "type": "Point", "coordinates": [ 75.67011, 29.44574 ] } },
{ "type": "Feature", "properties": { "Asset_Name": "Anganwadi Centre", "Lat": 29.44859, "Long": 75.67133, "Management": "Women & Child Welfare", "Village_Na": "Gorakhpur(52)", "Panchayat": "Gorakhpur", "Village_Co": 60419.0, "Block_Name": "Bhuna", "Tehsil_Nam": "Fatehabad", "District_N": "Fatehabad", "Area_of_As": "1 Marla", "Constructi": "Completed", "Foundation": 1987.0, "icon_exp": "Aanganwadi_Centre.png" }, "geometry": { "type": "Point", "coordinates": [ 75.67133, 29.44859 ] } },
{ "type": "Feature", "properties": { "Asset_Name": "Anganwadi Centre", "Lat": 29.44905, "Long": 75.67561, "Management": "Women & Child Welfare", "Village_Na": "Gorakhpur(52)", "Panchayat": "Gorakhpur", "Village_Co": 60419.0, "Block_Name": "Bhuna", "Tehsil_Nam": "Fatehabad", "District_N": "Fatehabad", "Area_of_As": "8 Marla", "Constructi": "Completed", "Foundation": 2016.0, "icon_exp": "Aanganwadi_Centre.png" }, "geometry": { "type": "Point", "coordinates": [ 75.67561, 29.44905 ] } },
{ "type": "Feature", "properties": { "Asset_Name": "Anganwadi Centre", "Lat": 29.45645, "Long": 75.62392, "Management": "Women & Child Welfare", "Village_Na": "Gorakhpur(52)", "Panchayat": "Gorakhpur", "Village_Co": 60419.0, "Block_Name": "Bhuna", "Tehsil_Nam": "Fatehabad", "District_N": "Fatehabad", "Area_of_As": "50 Gaj", "Constructi": "Completed", "Foundation": 2010.0, "icon_exp": "Aanganwadi_Centre.png" }, "geometry": { "type": "Point", "coordinates": [ 75.62392, 29.45645 ] } },
{ "type": "Feature", "properties": { "Asset_Name": "Anganwadi Centre", "Lat": 29.43688, "Long": 75.73741, "Management": "Women & Child Welfare", "Village_Na": "Nehla(59)", "Panchayat": "Nehla", "Village_Co": 60417.0, "Block_Name": "Bhuna", "Tehsil_Nam": "Fatehabad", "District_N": "Fatehabad", "Area_of_As": "8 Marla", "Constructi": "Completed", "Foundation": 2004.0, "icon_exp": "Aanganwadi_Centre.png" }, "geometry": { "type": "Point", "coordinates": [ 75.73741, 29.43688 ] } },
{ "type": "Feature", "properties": { "Asset_Name": "Anganwadi Centre", "Lat": 29.44911, "Long": 75.73789, "Management": "Women & Child Welfare", "Village_Na": "Nehla(59)", "Panchayat": "Nehla", "Village_Co": 60417.0, "Block_Name": "Bhuna", "Tehsil_Nam": "Fatehabad", "District_N": "Fatehabad", "Area_of_As": "50 Gaj", "Constructi": "Completed", "Foundation": 2015.0, "icon_exp": "Aanganwadi_Centre.png" }, "geometry": { "type": "Point", "coordinates": [ 75.73789, 29.44911 ] } },
{ "type": "Feature", "properties": { "Asset_Name": "Anganwadi Centre", "Lat": 29.44654, "Long": 75.73711, "Management": "Women & Child Welfare", "Village_Na": "Nehla(59)", "Panchayat": "Nehla", "Village_Co": 60417.0, "Block_Name": "Bhuna", "Tehsil_Nam": "Fatehabad", "District_N": "Fatehabad", "Area_of_As": "6 Marla", "Constructi": "Completed", "Foundation": 2010.0, "icon_exp": "Aanganwadi_Centre.png" }, "geometry": { "type": "Point", "coordinates": [ 75.73711, 29.44654 ] } },
{ "type": "Feature", "properties": { "Asset_Name": "Anganwadi Centre", "Lat": 29.44013, "Long": 75.74484, "Management": "Women & Child Welfare", "Village_Na": "Nehla(59)", "Panchayat": "Nehla", "Village_Co": 60417.0, "Block_Name": "Bhuna", "Tehsil_Nam": "Fatehabad", "District_N": "Fatehabad", "Area_of_As": "4 Marla", "Constructi": "Completed", "Foundation": 2014.0, "icon_exp": "Aanganwadi_Centre.png" }, "geometry": { "type": "Point", "coordinates": [ 75.74484, 29.44013 ] } },
{ "type": "Feature", "properties": { "Asset_Name": "Anganwadi Centre", "Lat": 29.44045, "Long": 75.73886, "Management": "Women & Child Welfare", "Village_Na": "Nehla(59)", "Panchayat": "Nehla", "Village_Co": 60417.0, "Block_Name": "Bhuna", "Tehsil_Nam": "Fatehabad", "District_N": "Fatehabad", "Area_of_As": "50 Gaj", "Constructi": "Completed", "Foundation": 1987.0, "icon_exp": "Aanganwadi_Centre.png" }, "geometry": { "type": "Point", "coordinates": [ 75.73886, 29.44045 ] } },
{ "type": "Feature", "properties": { "Asset_Name": "Anganwadi Centre", "Lat": 29.44223, "Long": 75.73978, "Management": "Women & Child Welfare", "Village_Na": "Nehla(59)", "Panchayat": "Nehla", "Village_Co": 60417.0, "Block_Name": "Bhuna", "Tehsil_Nam": "Fatehabad", "District_N": "Fatehabad", "Area_of_As": "50 Gaj", "Constructi": "Completed", "Foundation": 1990.0, "icon_exp": "Aanganwadi_Centre.png" }, "geometry": { "type": "Point", "coordinates": [ 75.73978, 29.44223 ] } },
{ "type": "Feature", "properties": { "Asset_Name": "Anganwadi Centre", "Lat": 29.44442, "Long": 75.73882, "Management": "Women & Child Welfare", "Village_Na": "Nehla(59)", "Panchayat": "Nehla", "Village_Co": 60417.0, "Block_Name": "Bhuna", "Tehsil_Nam": "Fatehabad", "District_N": "Fatehabad", "Area_of_As": "8 Marla", "Constructi": "Completed", "Foundation": 2014.0, "icon_exp": "Aanganwadi_Centre.png" }, "geometry": { "type": "Point", "coordinates": [ 75.73882, 29.44442 ] } },
{ "type": "Feature", "properties": { "Asset_Name": "Anganwadi Centre", "Lat": 29.44165, "Long": 75.73676, "Management": "Women & Child Welfare", "Village_Na": "Nehla(59)", "Panchayat": "Nehla", "Village_Co": 60417.0, "Block_Name": "Bhuna", "Tehsil_Nam": "Fatehabad", "District_N": "Fatehabad", "Area_of_As": "2 marla", "Constructi": "Completed", "Foundation": 1995.0, "icon_exp": "Aanganwadi_Centre.png" }, "geometry": { "type": "Point", "coordinates": [ 75.73676, 29.44165 ] } },
{ "type": "Feature", "properties": { "Asset_Name": "Anganwadi Centre", "Lat": 29.53306, "Long": 75.71329, "Management": "Women & Child Welfare", "Village_Na": "Bhuna(63)", "Panchayat": "Bhuna", "Village_Co": 60415.0, "Block_Name": "Bhuna", "Tehsil_Nam": "Fatehabad", "District_N": "Fatehabad", "Area_of_As": "2 marla", "Constructi": "Completed", "Foundation": 2002.0, "icon_exp": "Aanganwadi_Centre.png" }, "geometry": { "type": "Point", "coordinates": [ 75.71329, 29.53306 ] } },
{ "type": "Feature", "properties": { "Asset_Name": "Anganwadi Centre", "Lat": 29.52824, "Long": 75.70501, "Management": "Women & Child Welfare", "Village_Na": "Bhuna(63)", "Panchayat": "Bhuna", "Village_Co": 60415.0, "Block_Name": "Bhuna", "Tehsil_Nam": "Fatehabad", "District_N": "Fatehabad", "Area_of_As": "100 Gaj", "Constructi": "Completed", "Foundation": 2014.0, "icon_exp": "Aanganwadi_Centre.png" }, "geometry": { "type": "Point", "coordinates": [ 75.70501, 29.52824 ] } },
{ "type": "Feature", "properties": { "Asset_Name": "Anganwadi Centre", "Lat": 29.52933, "Long": 75.69901, "Management": "Women & Child Welfare", "Village_Na": "Bhuna(63)", "Panchayat": "Bhuna", "Village_Co": 60415.0, "Block_Name": "Bhuna", "Tehsil_Nam": "Fatehabad", "District_N": "Fatehabad", "Area_of_As": "2 marla", "Constructi": "Completed", "Foundation": 2010.0, "icon_exp": "Aanganwadi_Centre.png" }, "geometry": { "type": "Point", "coordinates": [ 75.69901, 29.52933 ] } },
{ "type": "Feature", "properties": { "Asset_Name": "Anganwadi Centre", "Lat": 29.54271, "Long": 75.71228, "Management": "Women & Child Welfare", "Village_Na": "Bhuna(63)", "Panchayat": "Bhuna", "Village_Co": 60415.0, "Block_Name": "Bhuna", "Tehsil_Nam": "Fatehabad", "District_N": "Fatehabad", "Area_of_As": "50 Gaj", "Constructi": "Completed", "Foundation": 1995.0, "icon_exp": "Aanganwadi_Centre.png" }, "geometry": { "type": "Point", "coordinates": [ 75.71228, 29.54271 ] } },
{ "type": "Feature", "properties": { "Asset_Name": "Anganwadi Centre", "Lat": 29.54045, "Long": 75.71124, "Management": "Women & Child Welfare", "Village_Na": "Bhuna(63)", "Panchayat": "Bhuna", "Village_Co": 60415.0, "Block_Name": "Bhuna", "Tehsil_Nam": "Fatehabad", "District_N": "Fatehabad", "Area_of_As": "1 Marla", "Constructi": "Completed", "Foundation": 2010.0, "icon_exp": "Aanganwadi_Centre.png" }, "geometry": { "type": "Point", "coordinates": [ 75.71124, 29.54045 ] } },
{ "type": "Feature", "properties": { "Asset_Name": "Anganwadi Centre", "Lat": 29.53781, "Long": 75.71226, "Management": "Women & Child Welfare", "Village_Na": "Bhuna(63)", "Panchayat": "Bhuna", "Village_Co": 60415.0, "Block_Name": "Bhuna", "Tehsil_Nam": "Fatehabad", "District_N": "Fatehabad", "Area_of_As": "1 Marla", "Constructi": "Completed", "Foundation": 2010.0, "icon_exp": "Aanganwadi_Centre.png" }, "geometry": { "type": "Point", "coordinates": [ 75.71226, 29.53781 ] } },
{ "type": "Feature", "properties": { "Asset_Name": "Anganwadi Centre", "Lat": 29.53559, "Long": 75.71581, "Management": "Women & Child Welfare", "Village_Na": "Bhuna(63)", "Panchayat": "Bhuna", "Village_Co": 60415.0, "Block_Name": "Bhuna", "Tehsil_Nam": "Fatehabad", "District_N": "Fatehabad", "Area_of_As": "1 Marla", "Constructi": "Completed", "Foundation": 2010.0, "icon_exp": "Aanganwadi_Centre.png" }, "geometry": { "type": "Point", "coordinates": [ 75.71581, 29.53559 ] } },
{ "type": "Feature", "properties": { "Asset_Name": "Anganwadi Centre", "Lat": 29.53498, "Long": 75.71525, "Management": "Women & Child Welfare", "Village_Na": "Bhuna(63)", "Panchayat": "Bhuna", "Village_Co": 60415.0, "Block_Name": "Bhuna", "Tehsil_Nam": "Fatehabad", "District_N": "Fatehabad", "Area_of_As": "1 Marla", "Constructi": "Completed", "Foundation": 2011.0, "icon_exp": "Aanganwadi_Centre.png" }, "geometry": { "type": "Point", "coordinates": [ 75.71525, 29.53498 ] } },
{ "type": "Feature", "properties": { "Asset_Name": "Anganwadi Centre", "Lat": 29.53268, "Long": 75.71548, "Management": "Women & Child Welfare", "Village_Na": "Bhuna(63)", "Panchayat": "Bhuna", "Village_Co": 60415.0, "Block_Name": "Bhuna", "Tehsil_Nam": "Fatehabad", "District_N": "Fatehabad", "Area_of_As": "1.5 Marla", "Constructi": "Completed", "Foundation": 2006.0, "icon_exp": "Aanganwadi_Centre.png" }, "geometry": { "type": "Point", "coordinates": [ 75.71548, 29.53268 ] } },
{ "type": "Feature", "properties": { "Asset_Name": "Anganwadi Centre", "Lat": 29.52816, "Long": 75.71121, "Management": "Women & Child Welfare", "Village_Na": "Bhuna(63)", "Panchayat": "Bhuna", "Village_Co": 60415.0, "Block_Name": "Bhuna", "Tehsil_Nam": "Fatehabad", "District_N": "Fatehabad", "Area_of_As": "3 Marla", "Constructi": "Completed", "Foundation": 2012.0, "icon_exp": "Aanganwadi_Centre.png" }, "geometry": { "type": "Point", "coordinates": [ 75.71121, 29.52816 ] } },
{ "type": "Feature", "properties": { "Asset_Name": "Anganwadi Centre", "Lat": 29.53027, "Long": 75.71112, "Management": "Women & Child Welfare", "Village_Na": "Bhuna(63)", "Panchayat": "Bhuna", "Village_Co": 60415.0, "Block_Name": "Bhuna", "Tehsil_Nam": "Fatehabad", "District_N": "Fatehabad", "Area_of_As": "2 marla", "Constructi": "Completed", "Foundation": 1985.0, "icon_exp": "Aanganwadi_Centre.png" }, "geometry": { "type": "Point", "coordinates": [ 75.71112, 29.53027 ] } },
{ "type": "Feature", "properties": { "Asset_Name": "Anganwadi Centre", "Lat": 29.52861, "Long": 75.70651, "Management": "Women & Child Welfare", "Village_Na": "Bhuna(63)", "Panchayat": "Bhuna", "Village_Co": 60415.0, "Block_Name": "Bhuna", "Tehsil_Nam": "Fatehabad", "District_N": "Fatehabad", "Area_of_As": "6 Marla", "Constructi": "Completed", "Foundation": 1995.0, "icon_exp": "Aanganwadi_Centre.png" }, "geometry": { "type": "Point", "coordinates": [ 75.70651, 29.52861 ] } },
{ "type": "Feature", "properties": { "Asset_Name": "Anganwadi Centre", "Lat": 29.52921, "Long": 75.70296, "Management": "Women & Child Welfare", "Village_Na": "Bhuna(63)", "Panchayat": "Bhuna", "Village_Co": 60415.0, "Block_Name": "Bhuna", "Tehsil_Nam": "Fatehabad", "District_N": "Fatehabad", "Area_of_As": "7 Marla", "Constructi": "Completed", "Foundation": 2014.0, "icon_exp": "Aanganwadi_Centre.png" }, "geometry": { "type": "Point", "coordinates": [ 75.70296, 29.52921 ] } },
{ "type": "Feature", "properties": { "Asset_Name": "Anganwadi Centre", "Lat": 29.53201, "Long": 75.70444, "Management": "Women & Child Welfare", "Village_Na": "Bhuna(63)", "Panchayat": "Bhuna", "Village_Co": 60415.0, "Block_Name": "Bhuna", "Tehsil_Nam": "Fatehabad", "District_N": "Fatehabad", "Area_of_As": "1 Marla", "Constructi": "Completed", "Foundation": 2011.0, "icon_exp": "Aanganwadi_Centre.png" }, "geometry": { "type": "Point", "coordinates": [ 75.70444, 29.53201 ] } },
{ "type": "Feature", "properties": { "Asset_Name": "Anganwadi Centre", "Lat": 29.53239, "Long": 75.70439, "Management": "Women & Child Welfare", "Village_Na": "Bhuna(63)", "Panchayat": "Bhuna", "Village_Co": 60415.0, "Block_Name": "Bhuna", "Tehsil_Nam": "Fatehabad", "District_N": "Fatehabad", "Area_of_As": "1.5 Marla", "Constructi": "Completed", "Foundation": 1995.0, "icon_exp": "Aanganwadi_Centre.png" }, "geometry": { "type": "Point", "coordinates": [ 75.70439, 29.53239 ] } },
{ "type": "Feature", "properties": { "Asset_Name": "Anganwadi Centre", "Lat": 29.53449, "Long": 75.70485, "Management": "Women & Child Welfare", "Village_Na": "Bhuna(63)", "Panchayat": "Bhuna", "Village_Co": 60415.0, "Block_Name": "Bhuna", "Tehsil_Nam": "Fatehabad", "District_N": "Fatehabad", "Area_of_As": "1 Marla", "Constructi": "Completed", "Foundation": 2011.0, "icon_exp": "Aanganwadi_Centre.png" }, "geometry": { "type": "Point", "coordinates": [ 75.70485, 29.53449 ] } },
{ "type": "Feature", "properties": { "Asset_Name": "Anganwadi Centre", "Lat": 29.53621, "Long": 75.70489, "Management": "Women & Child Welfare", "Village_Na": "Bhuna(63)", "Panchayat": "Bhuna", "Village_Co": 60415.0, "Block_Name": "Bhuna", "Tehsil_Nam": "Fatehabad", "District_N": "Fatehabad", "Area_of_As": "50 Gaj", "Constructi": "Completed", "Foundation": 1985.0, "icon_exp": "Aanganwadi_Centre.png" }, "geometry": { "type": "Point", "coordinates": [ 75.70489, 29.53621 ] } },
{ "type": "Feature", "properties": { "Asset_Name": "Anganwadi Centre", "Lat": 29.53617, "Long": 75.70375, "Management": "Women & Child Welfare", "Village_Na": "Bhuna(63)", "Panchayat": "Bhuna", "Village_Co": 60415.0, "Block_Name": "Bhuna", "Tehsil_Nam": "Fatehabad", "District_N": "Fatehabad", "Area_of_As": "1 Marla", "Constructi": "Completed", "Foundation": 1993.0, "icon_exp": "Aanganwadi_Centre.png" }, "geometry": { "type": "Point", "coordinates": [ 75.70375, 29.53617 ] } },
{ "type": "Feature", "properties": { "Asset_Name": "Anganwadi Centre", "Lat": 29.53775, "Long": 75.70182, "Management": "Women & Child Welfare", "Village_Na": "Bhuna(63)", "Panchayat": "Bhuna", "Village_Co": 60415.0, "Block_Name": "Bhuna", "Tehsil_Nam": "Fatehabad", "District_N": "Fatehabad", "Area_of_As": "1 Marla", "Constructi": "Completed", "Foundation": 2006.0, "icon_exp": "Aanganwadi_Centre.png" }, "geometry": { "type": "Point", "coordinates": [ 75.70182, 29.53775 ] } },
{ "type": "Feature", "properties": { "Asset_Name": "Anganwadi Centre", "Lat": 29.53843, "Long": 75.70223, "Management": "Women & Child Welfare", "Village_Na": "Bhuna(63)", "Panchayat": "Bhuna", "Village_Co": 60415.0, "Block_Name": "Bhuna", "Tehsil_Nam": "Fatehabad", "District_N": "Fatehabad", "Area_of_As": "1 Marla", "Constructi": "Completed", "Foundation": 2011.0, "icon_exp": "Aanganwadi_Centre.png" }, "geometry": { "type": "Point", "coordinates": [ 75.70223, 29.53843 ] } },
{ "type": "Feature", "properties": { "Asset_Name": "Anganwadi Centre", "Lat": 29.53807, "Long": 75.69787, "Management": "Women & Child Welfare", "Village_Na": "Bhuna(63)", "Panchayat": "Bhuna", "Village_Co": 60415.0, "Block_Name": "Bhuna", "Tehsil_Nam": "Fatehabad", "District_N": "Fatehabad", "Area_of_As": "1 Marla", "Constructi": "Completed", "Foundation": 2011.0, "icon_exp": "Aanganwadi_Centre.png" }, "geometry": { "type": "Point", "coordinates": [ 75.69787, 29.53807 ] } },
{ "type": "Feature", "properties": { "Asset_Name": "Anganwadi Centre", "Lat": 29.53996, "Long": 75.70184, "Management": "Women & Child Welfare", "Village_Na": "Bhuna(63)", "Panchayat": "Bhuna", "Village_Co": 60415.0, "Block_Name": "Bhuna", "Tehsil_Nam": "Fatehabad", "District_N": "Fatehabad", "Area_of_As": "1 Marla", "Constructi": "Completed", "Foundation": 2013.0, "icon_exp": "Aanganwadi_Centre.png" }, "geometry": { "type": "Point", "coordinates": [ 75.70184, 29.53996 ] } },
{ "type": "Feature", "properties": { "Asset_Name": "Anganwadi Centre", "Lat": 29.53287, "Long": 75.71031, "Management": "Women & Child Welfare", "Village_Na": "Bhuna(63)", "Panchayat": "Bhuna", "Village_Co": 60415.0, "Block_Name": "Bhuna", "Tehsil_Nam": "Fatehabad", "District_N": "Fatehabad", "Area_of_As": "1 Marla", "Constructi": "Completed", "Foundation": 2011.0, "icon_exp": "Aanganwadi_Centre.png" }, "geometry": { "type": "Point", "coordinates": [ 75.71031, 29.53287 ] } },
{ "type": "Feature", "properties": { "Asset_Name": "Anganwadi Centre", "Lat": 29.53364, "Long": 75.70858, "Management": "Women & Child Welfare", "Village_Na": "Bhuna(63)", "Panchayat": "Bhuna", "Village_Co": 60415.0, "Block_Name": "Bhuna", "Tehsil_Nam": "Fatehabad", "District_N": "Fatehabad", "Area_of_As": "1 Marla", "Constructi": "Completed", "Foundation": 2011.0, "icon_exp": "Aanganwadi_Centre.png" }, "geometry": { "type": "Point", "coordinates": [ 75.70858, 29.53364 ] } },
{ "type": "Feature", "properties": { "Asset_Name": "Anganwadi Centre", "Lat": 29.50224, "Long": 75.74474, "Management": "Women & Child Welfare", "Village_Na": "Bhuna(63)", "Panchayat": "Bhuna", "Village_Co": 60415.0, "Block_Name": "Bhuna", "Tehsil_Nam": "Fatehabad", "District_N": "Fatehabad", "Area_of_As": "2 marla", "Constructi": "Completed", "Foundation": 1995.0, "icon_exp": "Aanganwadi_Centre.png" }, "geometry": { "type": "Point", "coordinates": [ 75.74474, 29.50224 ] } },
{ "type": "Feature", "properties": { "Asset_Name": "Anganwadi Centre", "Lat": 29.55824, "Long": 75.45747, "Management": "Women & Child Welfare", "Village_Na": "Dhani Binja Lamba(185)", "Panchayat": "Dhani Thoba", "Village_Co": 60462.0, "Block_Name": "Fatehabad", "Tehsil_Nam": "Fatehabad", "District_N": "Fatehabad", "Area_of_As": "8 Marla", "Constructi": "Completed", "Foundation": 2016.0, "icon_exp": "Aanganwadi_Centre.png" }, "geometry": { "type": "Point", "coordinates": [ 75.45747, 29.55824 ] } },
{ "type": "Feature", "properties": { "Asset_Name": "Anganwadi Centre", "Lat": 29.59071, "Long": 75.48953, "Management": "Women & Child Welfare", "Village_Na": "Dhani Binja Lamba(185)", "Panchayat": "Dhani Binja Lamba", "Village_Co": 60462.0, "Block_Name": "Fatehabad", "Tehsil_Nam": "Fatehabad", "District_N": "Fatehabad", "Area_of_As": "8 Marla", "Constructi": "Completed", "Foundation": 2012.0, "icon_exp": "Aanganwadi_Centre.png" }, "geometry": { "type": "Point", "coordinates": [ 75.48953, 29.59071 ] } },
{ "type": "Feature", "properties": { "Asset_Name": "Anganwadi Centre", "Lat": 29.56496, "Long": 75.43595, "Management": "Women & Child Welfare", "Village_Na": "Hijrawan Kalan(41)", "Panchayat": "Dhani Chhatria", "Village_Co": 60466.0, "Block_Name": "Fatehabad", "Tehsil_Nam": "Fatehabad", "District_N": "Fatehabad", "Area_of_As": "8 Marla", "Constructi": "Completed", "Foundation": 2015.0, "icon_exp": "Aanganwadi_Centre.png" }, "geometry": { "type": "Point", "coordinates": [ 75.43595, 29.56496 ] } },
{ "type": "Feature", "properties": { "Asset_Name": "Anganwadi Centre", "Lat": 29.49292, "Long": 75.53686, "Management": "Women & Child Welfare", "Village_Na": "Majra(138)", "Panchayat": "Dhani Majra", "Village_Co": 60453.0, "Block_Name": "Fatehabad", "Tehsil_Nam": "Fatehabad", "District_N": "Fatehabad", "Area_of_As": "6 Marla", "Constructi": "Completed", "Foundation": 2011.0, "icon_exp": "Aanganwadi_Centre.png" }, "geometry": { "type": "Point", "coordinates": [ 75.53686, 29.49292 ] } },
{ "type": "Feature", "properties": { "Asset_Name": "Anganwadi Centre", "Lat": 29.52432, "Long": 75.52117, "Management": "Women & Child Welfare", "Village_Na": "Majra(138)", "Panchayat": "Majra", "Village_Co": 60453.0, "Block_Name": "Fatehabad", "Tehsil_Nam": "Fatehabad", "District_N": "Fatehabad", "Area_of_As": "6 Marla", "Constructi": "Completed", "Foundation": 2000.0, "icon_exp": "Aanganwadi_Centre.png" }, "geometry": { "type": "Point", "coordinates": [ 75.52117, 29.52432 ] } },
{ "type": "Feature", "properties": { "Asset_Name": "Anganwadi Centre", "Lat": 29.50395, "Long": 75.49991, "Management": "Women & Child Welfare", "Village_Na": "Basin(97)", "Panchayat": "Barseen", "Village_Co": 60451.0, "Block_Name": "Fatehabad", "Tehsil_Nam": "Fatehabad", "District_N": "Fatehabad", "Area_of_As": "8 Marla", "Constructi": "Completed", "Foundation": 2016.0, "icon_exp": "Aanganwadi_Centre.png" }, "geometry": { "type": "Point", "coordinates": [ 75.49991, 29.50395 ] } },
{ "type": "Feature", "properties": { "Asset_Name": "Anganwadi Centre", "Lat": 29.50333, "Long": 75.49781, "Management": "Women & Child Welfare", "Village_Na": "Basin(97)", "Panchayat": "Barseen", "Village_Co": 60451.0, "Block_Name": "Fatehabad", "Tehsil_Nam": "Fatehabad", "District_N": "Fatehabad", "Area_of_As": "50 Gaj", "Constructi": "Completed", "Foundation": 2012.0, "icon_exp": "Aanganwadi_Centre.png" }, "geometry": { "type": "Point", "coordinates": [ 75.49781, 29.50333 ] } },
{ "type": "Feature", "properties": { "Asset_Name": "Anganwadi Centre", "Lat": 29.54189, "Long": 75.44008, "Management": "Women & Child Welfare", "Village_Na": "Khan Mohammad", "Panchayat": "Khan Mohammad", "Village_Co": 60465.0, "Block_Name": "Fatehabad", "Tehsil_Nam": "Fatehabad", "District_N": "Fatehabad", "Area_of_As": "4 Marla", "Constructi": "Completed", "Foundation": 2012.0, "icon_exp": "Aanganwadi_Centre.png" }, "geometry": { "type": "Point", "coordinates": [ 75.44008, 29.54189 ] } },
{ "type": "Feature", "properties": { "Asset_Name": "Anganwadi Centre", "Lat": 29.59548, "Long": 75.40986, "Management": "Women & Child Welfare", "Village_Na": "Hijrawan Kalan(41)", "Panchayat": "Musha Ahli", "Village_Co": 60466.0, "Block_Name": "Fatehabad", "Tehsil_Nam": "Fatehabad", "District_N": "Fatehabad", "Area_of_As": "8 Marla", "Constructi": "Completed", "Foundation": 2012.0, "icon_exp": "Aanganwadi_Centre.png" }, "geometry": { "type": "Point", "coordinates": [ 75.40986, 29.59548 ] } },
{ "type": "Feature", "properties": { "Asset_Name": "Anganwadi Centre", "Lat": 29.59527, "Long": 75.42549, "Management": "Women & Child Welfare", "Village_Na": "Hijrawan Kalan(41)", "Panchayat": "Kariayan", "Village_Co": 60466.0, "Block_Name": "Fatehabad", "Tehsil_Nam": "Fatehabad", "District_N": "Fatehabad", "Area_of_As": "50 Gaj", "Constructi": "Completed", "Foundation": 2004.0, "icon_exp": "Aanganwadi_Centre.png" }, "geometry": { "type": "Point", "coordinates": [ 75.42549, 29.59527 ] } },
{ "type": "Feature", "properties": { "Asset_Name": "Anganwadi Centre", "Lat": 29.58617, "Long": 75.43821, "Management": "Women & Child Welfare", "Village_Na": "Hijrawan Kalan(41)", "Panchayat": "Nurki Ahli", "Village_Co": 60466.0, "Block_Name": "Fatehabad", "Tehsil_Nam": "Fatehabad", "District_N": "Fatehabad", "Area_of_As": "8 Marla", "Constructi": "Completed", "Foundation": 2016.0, "icon_exp": "Aanganwadi_Centre.png" }, "geometry": { "type": "Point", "coordinates": [ 75.43821, 29.58617 ] } },
{ "type": "Feature", "properties": { "Asset_Name": "Anganwadi Centre", "Lat": 29.59065, "Long": 75.34381, "Management": "Women & Child Welfare", "Village_Na": "Hijarawan Khurd (40)", "Panchayat": "Nakhatia", "Village_Co": 60469.0, "Block_Name": "Fatehabad", "Tehsil_Nam": "Fatehabad", "District_N": "Fatehabad", "Area_of_As": "8 Marla", "Constructi": "Completed", "Foundation": 2014.0, "icon_exp": "Aanganwadi_Centre.png" }, "geometry": { "type": "Point", "coordinates": [ 75.34381, 29.59065 ] } },
{ "type": "Feature", "properties": { "Asset_Name": "Anganwadi Centre", "Lat": 29.60187, "Long": 75.31599, "Management": "Women & Child Welfare", "Village_Na": "Bhattu Khurd(120)", "Panchayat": "Bhattu Khurd", "Village_Co": 60474.0, "Block_Name": "Fatehabad", "Tehsil_Nam": "Fatehabad", "District_N": "Fatehabad", "Area_of_As": "4 Marla", "Constructi": "Completed", "Foundation": 2000.0, "icon_exp": "Aanganwadi_Centre.png" }, "geometry": { "type": "Point", "coordinates": [ 75.31599, 29.60187 ] } },
{ "type": "Feature", "properties": { "Asset_Name": "Anganwadi Centre", "Lat": 29.60261, "Long": 75.31581, "Management": "Women & Child Welfare", "Village_Na": "Bhattu Khurd(120)", "Panchayat": "Bhattu Khurd", "Village_Co": 60474.0, "Block_Name": "Fatehabad", "Tehsil_Nam": "Fatehabad", "District_N": "Fatehabad", "Area_of_As": "2 Marla", "Constructi": "Completed", "Foundation": 2004.0, "icon_exp": "Aanganwadi_Centre.png" }, "geometry": { "type": "Point", "coordinates": [ 75.31581, 29.60261 ] } },
{ "type": "Feature", "properties": { "Asset_Name": "Anganwadi Centre", "Lat": 29.60137, "Long": 75.31495, "Management": "Women & Child Welfare", "Village_Na": "Bhattu Khurd(120)", "Panchayat": "Bhattu Khurd", "Village_Co": 60474.0, "Block_Name": "Fatehabad", "Tehsil_Nam": "Fatehabad", "District_N": "Fatehabad", "Area_of_As": "2 Marla", "Constructi": "Completed", "Foundation": 2004.0, "icon_exp": "Aanganwadi_Centre.png" }, "geometry": { "type": "Point", "coordinates": [ 75.31495, 29.60137 ] } },
{ "type": "Feature", "properties": { "Asset_Name": "Anganwadi Centre", "Lat": 29.61451, "Long": 75.32446, "Management": "Women & Child Welfare", "Village_Na": "Theri(119)", "Panchayat": "Theiri", "Village_Co": 60473.0, "Block_Name": "Fatehabad", "Tehsil_Nam": "Fatehabad", "District_N": "Fatehabad", "Area_of_As": "4 Marla", "Constructi": "Completed", "Foundation": 2013.0, "icon_exp": "Aanganwadi_Centre.png" }, "geometry": { "type": "Point", "coordinates": [ 75.32446, 29.61451 ] } },
{ "type": "Feature", "properties": { "Asset_Name": "Anganwadi Centre", "Lat": 29.62262, "Long": 75.34222, "Management": "Women & Child Welfare", "Village_Na": "Behbalpur(118)", "Panchayat": "Behbalpur", "Village_Co": 60472.0, "Block_Name": "Fatehabad", "Tehsil_Nam": "Fatehabad", "District_N": "Fatehabad", "Area_of_As": "8 Marla", "Constructi": "Completed", "Foundation": 2012.0, "icon_exp": "Aanganwadi_Centre.png" }, "geometry": { "type": "Point", "coordinates": [ 75.34222, 29.62262 ] } },
{ "type": "Feature", "properties": { "Asset_Name": "Anganwadi Centre", "Lat": 29.62129, "Long": 75.34171, "Management": "Women & Child Welfare", "Village_Na": "Behbalpur(118)", "Panchayat": "Behbalpur", "Village_Co": 60472.0, "Block_Name": "Fatehabad", "Tehsil_Nam": "Fatehabad", "District_N": "Fatehabad", "Area_of_As": "2 Marla", "Constructi": "Completed", "Foundation": 2010.0, "icon_exp": "Aanganwadi_Centre.png" }, "geometry": { "type": "Point", "coordinates": [ 75.34171, 29.62129 ] } },
{ "type": "Feature", "properties": { "Asset_Name": "Anganwadi Centre", "Lat": 29.62958, "Long": 75.34483, "Management": "Women & Child Welfare", "Village_Na": "Bhodolawali", "Panchayat": "Bhadolawali", "Village_Co": 60471.0, "Block_Name": "Fatehabad", "Tehsil_Nam": "Fatehabad", "District_N": "Fatehabad", "Area_of_As": "8 Marla", "Constructi": "Completed", "Foundation": 2005.0, "icon_exp": "Aanganwadi_Centre.png" }, "geometry": { "type": "Point", "coordinates": [ 75.34483, 29.62958 ] } },
{ "type": "Feature", "properties": { "Asset_Name": "Anganwadi Centre", "Lat": 29.60648, "Long": 75.38422, "Management": "Women & Child Welfare", "Village_Na": "Manakpur", "Panchayat": "Manakpur", "Village_Co": 60272.0, "Block_Name": "Fatehabad", "Tehsil_Nam": "Ratia", "District_N": "Fatehabad", "Area_of_As": "8 Marla", "Constructi": "Completed", "Foundation": 2015.0, "icon_exp": "Aanganwadi_Centre.png" }, "geometry": { "type": "Point", "coordinates": [ 75.38422, 29.60648 ] } },
{ "type": "Feature", "properties": { "Asset_Name": "Anganwadi Centre", "Lat": 29.62215, "Long": 75.38091, "Management": "Women & Child Welfare", "Village_Na": "Nakta(117)", "Panchayat": "Nakta", "Village_Co": 60271.0, "Block_Name": "Fatehabad", "Tehsil_Nam": "Ratia", "District_N": "Fatehabad", "Area_of_As": "8 Marla", "Constructi": "Completed", "Foundation": 2008.0, "icon_exp": "Aanganwadi_Centre.png" }, "geometry": { "type": "Point", "coordinates": [ 75.38091, 29.62215 ] } },
{ "type": "Feature", "properties": { "Asset_Name": "Anganwadi Centre", "Lat": 29.65759, "Long": 75.42159, "Management": "Women & Child Welfare", "Village_Na": "Nagpur(107)", "Panchayat": "Nagpur", "Village_Co": 60468.0, "Block_Name": "Fatehabad", "Tehsil_Nam": "Fatehabad", "District_N": "Fatehabad", "Area_of_As": "8 Marla", "Constructi": "Completed", "Foundation": 2000.0, "icon_exp": "Aanganwadi_Centre.png" }, "geometry": { "type": "Point", "coordinates": [ 75.42159, 29.65759 ] } },
{ "type": "Feature", "properties": { "Asset_Name": "Anganwadi Centre", "Lat": 29.65681, "Long": 75.41873, "Management": "Women & Child Welfare", "Village_Na": "Nagpur(107)", "Panchayat": "Nagpur", "Village_Co": 60468.0, "Block_Name": "Fatehabad", "Tehsil_Nam": "Fatehabad", "District_N": "Fatehabad", "Area_of_As": "8 Marla", "Constructi": "Completed", "Foundation": 2012.0, "icon_exp": "Aanganwadi_Centre.png" }, "geometry": { "type": "Point", "coordinates": [ 75.41873, 29.65681 ] } },
{ "type": "Feature", "properties": { "Asset_Name": "Anganwadi Centre", "Lat": 29.65685, "Long": 75.41869, "Management": "Women & Child Welfare", "Village_Na": "Nagpur(107)", "Panchayat": "Nagpur", "Village_Co": 60468.0, "Block_Name": "Fatehabad", "Tehsil_Nam": "Fatehabad", "District_N": "Fatehabad", "Area_of_As": "10 Marla", "Constructi": "Completed", "Foundation": 2012.0, "icon_exp": "Aanganwadi_Centre.png" }, "geometry": { "type": "Point", "coordinates": [ 75.41869, 29.65685 ] } },
{ "type": "Feature", "properties": { "Asset_Name": "Anganwadi Centre", "Lat": 29.66103, "Long": 75.42025, "Management": "Women & Child Welfare", "Village_Na": "Nagpur(107)", "Panchayat": "Nagpur", "Village_Co": 60468.0, "Block_Name": "Fatehabad", "Tehsil_Nam": "Fatehabad", "District_N": "Fatehabad", "Area_of_As": "8 Marla", "Constructi": "Completed", "Foundation": 2000.0, "icon_exp": "Aanganwadi_Centre.png" }, "geometry": { "type": "Point", "coordinates": [ 75.42025, 29.66103 ] } },
{ "type": "Feature", "properties": { "Asset_Name": "Anganwadi Centre", "Lat": 29.62239, "Long": 75.45158, "Management": "Women & Child Welfare", "Village_Na": "Chankothi(115)", "Panchayat": "Chankhothi", "Village_Co": 60467.0, "Block_Name": "Fatehabad", "Tehsil_Nam": "Fatehabad", "District_N": "Fatehabad", "Area_of_As": "10 Marla", "Constructi": "Completed", "Foundation": 2012.0, "icon_exp": "Aanganwadi_Centre.png" }, "geometry": { "type": "Point", "coordinates": [ 75.45158, 29.62239 ] } },
{ "type": "Feature", "properties": { "Asset_Name": "Anganwadi Centre", "Lat": 29.57181, "Long": 75.52415, "Management": "Women & Child Welfare", "Village_Na": "Razabad(128)", "Panchayat": "Rajabad", "Village_Co": 60457.0, "Block_Name": "Fatehabad", "Tehsil_Nam": "Fatehabad", "District_N": "Fatehabad", "Area_of_As": "2 Marla", "Constructi": "Completed", "Foundation": 2011.0, "icon_exp": "Aanganwadi_Centre.png" }, "geometry": { "type": "Point", "coordinates": [ 75.52415, 29.57181 ] } },