{
"type": "FeatureCollection",
"name": "RTDAS",
"features": [
{ "type": "Feature", "properties": { "HeadName": "Kajal Head", "stationNam": "Kishangarh Sub Branch", "circlecode": "Bws Circle Hisar", "Division_N": "Adampur W\/S Divn. Hisar", "Installati": "Kishangarh Sub Branch", "level": "3.938", "AuthorizIn": 603.34, "indent": null, "discharge": "771.000", "Date": "17\/09\/2021", "Time": "02:38:46PM" }, "geometry": { "type": "Point", "coordinates": [ 75.606254377868495, 29.442813323621966 ] } },
{ "type": "Feature", "properties": { "HeadName": "Sirsa Branch RD 388500", "stationNam": "Pabra Sub Branch", "circlecode": "Bws Circle Hisar", "Division_N": "Adampur W\/S Divn. Hisar", "Installati": "Pabra Sub Branch", "level": "5.342", "AuthorizIn": 376.5, "indent": "360", "discharge": "291.608", "Date": "17\/09\/2021", "Time": "02:44:06PM" }, "geometry": { "type": "Point", "coordinates": [ 75.964424, 29.501015 ] } },
{ "type": "Feature", "properties": { "HeadName": "Kajal Head", "stationNam": "Sidhmukh Feeder", "circlecode": "Bws Circle Hisar", "Division_N": "Adampur W\/S Divn. Hisar", "Installati": "Sidhmukh Feeder", "level": "0.706", "AuthorizIn": 113.0, "indent": null, "discharge": "86.348", "Date": "17\/09\/2021", "Time": "01:47:33PM" }, "geometry": { "type": "Point", "coordinates": [ 75.6045, 29.433691 ] } },
{ "type": "Feature", "properties": { "HeadName": "Pabra Sub Branch RD 36680", "stationNam": "Sarsaud Distributory", "circlecode": "Bws Circle Hisar", "Division_N": "Adampur W\/S Divn. Hisar", "Installati": "Sarsaud Disty", "level": "1.656", "AuthorizIn": 264.21, "indent": "225", "discharge": "209.282", "Date": "17\/09\/2021", "Time": "02:41:43PM" }, "geometry": { "type": "Point", "coordinates": [ 75.919403, 29.443478 ] } },
{ "type": "Feature", "properties": { "HeadName": "Sarsaund Disty RD 26494", "stationNam": "Balak Minor", "circlecode": "Bws Circle Hisar", "Division_N": "Adampur W\/S Divn. Hisar", "Installati": "Balak Minor", "level": "2.179", "AuthorizIn": 180.46, "indent": "177", "discharge": "181.606", "Date": "17\/09\/2021", "Time": "02:29:54PM" }, "geometry": { "type": "Point", "coordinates": [ 75.890015, 29.387335 ] } },
{ "type": "Feature", "properties": { "HeadName": "Hansi Branch RD 238326", "stationNam": "Petwar Distributory", "circlecode": "Bws Circle Hisar", "Division_N": "Hansi W\/S Divn. Hansi", "Installati": "Petwar Disty", "level": "5.341", "AuthorizIn": null, "indent": null, "discharge": "610.723", "Date": "17\/09\/2021", "Time": "02:31:50PM" }, "geometry": { "type": "Point", "coordinates": [ 76.201851, 29.261631 ] } },
{ "type": "Feature", "properties": { "HeadName": "Hansi Branch Tail", "stationNam": "Hisar Major Distributory", "circlecode": "Bws Circle Hisar", "Division_N": "Hansi W\/S Divn. Hansi", "Installati": "Hisar Major Disty", "level": "3.931", "AuthorizIn": 0.0, "indent": "400", "discharge": "281.461", "Date": "17\/09\/2021", "Time": "02:45:45PM" }, "geometry": { "type": "Point", "coordinates": [ 76.201431, 29.263382 ] } },
{ "type": "Feature", "properties": { "HeadName": "Hansi Branch RD235768", "stationNam": "Masudpur Distributory", "circlecode": "Bws Circle Hisar", "Division_N": "Hansi W\/S Divn. Hansi", "Installati": "Masudpur Disty", "level": "3.067", "AuthorizIn": 0.0, "indent": "150", "discharge": "111.054", "Date": "17\/09\/2021", "Time": "11:40:41AM" }, "geometry": { "type": "Point", "coordinates": [ 76.2043, 29.268093 ] } },
{ "type": "Feature", "properties": { "HeadName": "Petwar Dy RD 160142", "stationNam": "OP Jindal Nalwa Distributory", "circlecode": "Bws Circle Hisar", "Division_N": "Hansi W\/S Divn. Hansi", "Installati": "OP Jindal Nalwa Disaty", "level": "3.848", "AuthorizIn": 0.0, "indent": "75", "discharge": "88.380", "Date": "17\/09\/2021", "Time": "01:45:39PM" }, "geometry": { "type": "Point", "coordinates": [ 75.825989, 29.086428 ] } },
{ "type": "Feature", "properties": { "HeadName": "Budanpur Head", "stationNam": "Barwala Branch", "circlecode": "Bws Circle Hisar", "Division_N": "Hisar W\/S Divn. Hisar", "Installati": "Barwala Branch", "level": "6.891", "AuthorizIn": 600.0, "indent": "1250", "discharge": "1404.546", "Date": "17\/09\/2021", "Time": "02:45:21PM" }, "geometry": { "type": "Point", "coordinates": [ 76.103161259297167, 29.550274948049257 ] } },
{ "type": "Feature", "properties": { "HeadName": "Rajli Head", "stationNam": "Balsamand Sub Branch", "circlecode": "Bws Circle Hisar", "Division_N": "Hisar W\/S Divn. Hisar", "Installati": "Balsamand Sub-Branch", "level": "4.544", "AuthorizIn": 539.0, "indent": "750", "discharge": "660.640", "Date": "17\/09\/2021", "Time": "02:32:29PM" }, "geometry": { "type": "Point", "coordinates": [ 75.876274, 29.240951 ] } },
{ "type": "Feature", "properties": { "HeadName": "Balsamand Sub-Branch. RD 69840", "stationNam": "Old Siwani Feeder", "circlecode": "Bws Circle Hisar", "Division_N": "Hisar W\/S Divn. Hisar", "Installati": "Old Siwani Feeder", "level": "5.660", "AuthorizIn": 350.0, "indent": "650", "discharge": "342.995", "Date": "17\/09\/2021", "Time": "02:21:26PM" }, "geometry": { "type": "Point", "coordinates": [ 75.792492131000074, 29.094953172000032 ] } },
{ "type": "Feature", "properties": { "HeadName": "Rajli Head", "stationNam": "Rana Distributory", "circlecode": "Bws Circle Hisar", "Division_N": "Hisar W\/S Divn. Hisar", "Installati": "Rana Disty", "level": "1.589", "AuthorizIn": 0.0, "indent": "280", "discharge": "154.405", "Date": "17\/09\/2021", "Time": "02:41:56PM" }, "geometry": { "type": "Point", "coordinates": [ 75.877213, 29.269404 ] } },
{ "type": "Feature", "properties": { "HeadName": "Balsamand Sub Branch RD 105000", "stationNam": "Balsamand Distributory", "circlecode": "Bws Circle Hisar", "Division_N": "Hisar W\/S Divn. Hisar", "Installati": "Balsamand Disty", "level": "0.000", "AuthorizIn": 0.0, "indent": "0", "discharge": "0.000", "Date": "17\/09\/2021", "Time": "02:21:40PM" }, "geometry": { "type": "Point", "coordinates": [ 75.677917, 29.135971 ] } },
{ "type": "Feature", "properties": { "HeadName": "Saraswati Feeder RD 38000\/T", "stationNam": "Saraswati Distributory", "circlecode": "Bws Circle Kaithal", "Division_N": "Kaithal W\/S Divn. Kaithal", "Installati": "Saraswati Disty.", "level": "6.133", "AuthorizIn": 514.0, "indent": "200", "discharge": "199.885", "Date": "17\/09\/2021", "Time": "10:23:12AM" }, "geometry": { "type": "Point", "coordinates": [ 76.636139, 29.949736 ] } },
{ "type": "Feature", "properties": { "HeadName": "Narwana Branch RD 230983", "stationNam": "Markanda Distributory", "circlecode": "Bws Circle Kaithal", "Division_N": "Kaithal W\/S Divn. Kaithal", "Installati": "Markanda Disty", "level": "3.494", "AuthorizIn": null, "indent": null, "discharge": "105.631", "Date": "17\/09\/2021", "Time": "01:55:53PM" }, "geometry": { "type": "Point", "coordinates": [ 76.51355, 30.03158 ] } },
{ "type": "Feature", "properties": { "HeadName": "Saraswati Disty. RD 10800", "stationNam": "Kaithal Distributory", "circlecode": "Bws Circle Kaithal", "Division_N": "Kaithal W\/S Divn. Kaithal", "Installati": "Kaithal Disty.", "level": "2.154", "AuthorizIn": 117.0, "indent": "60", "discharge": "60.173", "Date": "17\/09\/2021", "Time": "02:26:06PM" }, "geometry": { "type": "Point", "coordinates": [ 76.637207, 29.94857 ] } },
{ "type": "Feature", "properties": { "HeadName": "Nehrana Head", "stationNam": "Sheranwali Distributory", "circlecode": "Bws Circle Sirsa", "Division_N": "Neharana W\/S Divn. Sirsa", "Installati": "Sheranwali Disty.", "level": "2.105", "AuthorizIn": 224.36, "indent": "181", "discharge": "149.654", "Date": "17\/09\/2021", "Time": "02:14:52PM" }, "geometry": { "type": "Point", "coordinates": [ 75.210495, 29.394646 ] } },
{ "type": "Feature", "properties": { "HeadName": "Nehrana Head", "stationNam": "Baruwali Distributory", "circlecode": "Bws Circle Sirsa", "Division_N": "Neharana W\/S Divn. Sirsa", "Installati": "Baruwali Disty.", "level": "0.000", "AuthorizIn": 0.0, "indent": "0", "discharge": "0.000", "Date": "17\/09\/2021", "Time": "02:28:42PM" }, "geometry": { "type": "Point", "coordinates": [ 75.210144, 29.393824 ] } },
{ "type": "Feature", "properties": { "HeadName": "Nehrana Head", "stationNam": "Kutiyana Distributory", "circlecode": "Bws Circle Sirsa", "Division_N": "Neharana W\/S Divn. Sirsa", "Installati": "Kutiyana Disty.", "level": "0.000", "AuthorizIn": 0.0, "indent": "0", "discharge": "0.000", "Date": "17\/09\/2021", "Time": "02:17:51PM" }, "geometry": { "type": "Point", "coordinates": [ 75.210861, 29.393349 ] } },
{ "type": "Feature", "properties": { "HeadName": "Fatehabad  Branch RD 265968\/R", "stationNam": "Banmandori Distributory", "circlecode": "Bws Circle Sirsa", "Division_N": "Neharana W\/S Divn. Sirsa", "Installati": "Banmandori Disty", "level": "2.044", "AuthorizIn": 151.5, "indent": "80", "discharge": "100.718", "Date": "17\/09\/2021", "Time": "02:30:44PM" }, "geometry": { "type": "Point", "coordinates": [ 75.316223, 29.396601 ] } },
{ "type": "Feature", "properties": { "HeadName": "Budhera Head", "stationNam": "Sirsa Branch", "circlecode": "Bws Circle Kaithal", "Division_N": "Pundri W\/S Divn. Kaithal", "Installati": "Sirsa Branch", "level": "6.267", "AuthorizIn": null, "indent": "1950", "discharge": "1700.864", "Date": "17\/09\/2021", "Time": "01:55:48PM" }, "geometry": { "type": "Point", "coordinates": [ 76.751457, 29.876711 ] } },
{ "type": "Feature", "properties": { "HeadName": "Budhera Head", "stationNam": "Habri Sub Branch", "circlecode": "Bws Circle Kaithal", "Division_N": "Pundri W\/S Divn. Kaithal", "Installati": "Habri Sub Branch", "level": "5.457", "AuthorizIn": 0.0, "indent": "700", "discharge": "634.948", "Date": "17\/09\/2021", "Time": "02:22:24PM" }, "geometry": { "type": "Point", "coordinates": [ 76.77699, 29.865951 ] } },
{ "type": "Feature", "properties": { "HeadName": "BMB RD 273000", "stationNam": "Bhakra main branch DS 273000", "circlecode": "Bws Circle Sirsa", "Division_N": "Rori W\/S Divn. Sirsa", "Installati": "Bhakra Main Branch", "level": "7.304", "AuthorizIn": null, "indent": null, "discharge": "306.504", "Date": "17\/09\/2021", "Time": "02:12:13PM" }, "geometry": { "type": "Point", "coordinates": [ 75.088814, 29.836124 ] } },
{ "type": "Feature", "properties": { "HeadName": "Bhakhra Main Branch RD 258000\/L", "stationNam": "Kaluana Distributory", "circlecode": "Bws Circle Sirsa", "Division_N": "Rori W\/S Divn. Sirsa", "Installati": "Kaluana Disty", "level": "1.316", "AuthorizIn": 0.0, "indent": "231", "discharge": "21.465", "Date": "17\/09\/2021", "Time": "10:24:21AM" }, "geometry": { "type": "Point", "coordinates": [ 75.096108, 29.824312 ] } },
{ "type": "Feature", "properties": { "HeadName": "Kalanwali Head", "stationNam": "Dabwali Distributory", "circlecode": "Bws CircleSirsa", "Division_N": "Rori W\/S Divn. Sirsa", "Installati": "Dabwali Disty", "level": "0.000", "AuthorizIn": 0.0, "indent": "0", "discharge": "0.000", "Date": "17\/09\/2021", "Time": "02:32:27PM" }, "geometry": { "type": "Point", "coordinates": [ 74.972855, 29.872391 ] } },
{ "type": "Feature", "properties": { "HeadName": "Bhakhra Main Branch RD 258000\/L", "stationNam": "Mammerkhera Distributory", "circlecode": "Bws Circle Sirsa", "Division_N": "Sirsa W\/S Divn. Sirsa", "Installati": "Mammerkhera Disty", "level": "0.000", "AuthorizIn": 0.0, "indent": "0", "discharge": "0.000", "Date": "17\/09\/2021", "Time": "02:15:32PM" }, "geometry": { "type": "Point", "coordinates": [ 75.119148, 29.786196 ] } },
{ "type": "Feature", "properties": { "HeadName": "H.C.P. Head", "stationNam": "Narwana Branch Head", "circlecode": "Syl Circle Ambala", "Division_N": "SYL W\/S Divn. Ambala", "Installati": "Narwana Branch", "level": "16.297", "AuthorizIn": 4147.0, "indent": "2000", "discharge": "2162.454", "Date": "17\/09\/2021", "Time": "02:09:05PM" }, "geometry": { "type": "Point", "coordinates": [ 76.69883, 30.229626 ] } },
{ "type": "Feature", "properties": { "HeadName": "Baliyala Head", "stationNam": "BML upstream", "circlecode": "Bws Circle Fatehabad", "Division_N": "W\/S Divn. Tohana", "Installati": "Bhakra Main Line", "level": "18.491", "AuthorizIn": null, "indent": null, "discharge": "4019.834", "Date": "17\/09\/2021", "Time": "02:13:14PM" }, "geometry": { "type": "Point", "coordinates": [ 75.925781, 29.711988 ] } },
{ "type": "Feature", "properties": { "HeadName": "Baliyala Head", "stationNam": "Bhakra Main Branch", "circlecode": "Bws Circle Fatehabad", "Division_N": "W\/S Divn. Tohana", "Installati": "Bhakra Main Branch", "level": "11.699", "AuthorizIn": 823.0, "indent": null, "discharge": "1717.298", "Date": "17\/09\/2021", "Time": "02:08:29PM" }, "geometry": { "type": "Point", "coordinates": [ 75.902878, 29.720032 ] } },
{ "type": "Feature", "properties": { "HeadName": "Baliyala Head", "stationNam": "Fatehabad Branch", "circlecode": "Bws Circle Fatehabad", "Division_N": "W\/S Divn. Tohana", "Installati": "Fatehabad Branch", "level": "12.317", "AuthorizIn": 2160.0, "indent": null, "discharge": "1922.580", "Date": "17\/09\/2021", "Time": "02:29:14PM" }, "geometry": { "type": "Point", "coordinates": [ 75.910004, 29.699835 ] } },
{ "type": "Feature", "properties": { "HeadName": "Kudni Head", "stationNam": "Ratia Branch", "circlecode": "Bws Circle Fatehabad", "Division_N": "W\/S Divn. Tohana", "Installati": "Ratia Branch", "level": "8.259", "AuthorizIn": 630.0, "indent": null, "discharge": "642.169", "Date": "17\/09\/2021", "Time": "02:22:03PM" }, "geometry": { "type": "Point", "coordinates": [ 75.833382, 29.725826 ] } },
{ "type": "Feature", "properties": { "HeadName": "Baliyala Head", "stationNam": "Fatehabad Distributory", "circlecode": "Bws Circle Fatehabad", "Division_N": "W\/S Divn. Tohana", "Installati": "Fatehabad Distributory", "level": "1.358", "AuthorizIn": 219.21, "indent": null, "discharge": "167.667", "Date": "17\/09\/2021", "Time": "02:20:40PM" }, "geometry": { "type": "Point", "coordinates": [ 75.919365, 29.714233 ] } },
{ "type": "Feature", "properties": { "HeadName": "RD 9502", "stationNam": "BML Barwala Link Channel", "circlecode": "Bws Circle Kaithal", "Division_N": "W\/S Divn. Narwana", "Installati": "B.M.L. Barwala Link", "level": "16.290", "AuthorizIn": 1394.0, "indent": "1226", "discharge": "1180.016", "Date": "17\/09\/2021", "Time": "02:10:39PM" }, "geometry": { "type": "Point", "coordinates": [ 76.115028, 29.787844 ] } },
{ "type": "Feature", "properties": { "HeadName": "Chandana Head", "stationNam": "Sirsa Branch DS", "circlecode": "Bws Circle Kaithal", "Division_N": "W\/S Divn. Narwana", "Installati": "Sirsa Branch", "level": "4.391", "AuthorizIn": 1348.42, "indent": "900", "discharge": "665.981", "Date": "17\/09\/2021", "Time": "02:27:33PM" }, "geometry": { "type": "Point", "coordinates": [ 76.34713, 29.737017 ] } },
{ "type": "Feature", "properties": { "HeadName": "Kaukot Head", "stationNam": "Shudkan Distributory", "circlecode": "Bws Circle Kaithal", "Division_N": "W\/S Divn. Narwana", "Installati": "Shudkan Disty", "level": "4.813", "AuthorizIn": 512.88, "indent": "525", "discharge": "422.520", "Date": "17\/09\/2021", "Time": "02:14:38PM" }, "geometry": { "type": "Point", "coordinates": [ 76.489769, 29.768646 ] } },
{ "type": "Feature", "properties": { "HeadName": "Chandana Head", "stationNam": "Dhamtan Distributory", "circlecode": "Bws Circle Kaithal", "Division_N": "W\/S Divn. Narwana", "Installati": "Dhamtan Disty.", "level": "4.898", "AuthorizIn": 283.78, "indent": "350", "discharge": "372.765", "Date": "17\/09\/2021", "Time": "02:29:22PM" }, "geometry": { "type": "Point", "coordinates": [ 76.377877, 29.746859 ] } },
{ "type": "Feature", "properties": { "HeadName": "Sirsa Branch RD 336500", "stationNam": "Barsola Feeder", "circlecode": "Bws Circle Kaithal", "Division_N": "W\/S Divn. Narwana", "Installati": "Barsola Feeder", "level": "4.913", "AuthorizIn": 99.91, "indent": "100", "discharge": "81.381", "Date": "17\/09\/2021", "Time": "02:21:18PM" }, "geometry": { "type": "Point", "coordinates": [ 76.126282, 29.561993 ] } },
{ "type": "Feature", "properties": { "HeadName": "Dhamtan RD 35560", "stationNam": "Dhanouri Distributory", "circlecode": "Bws Circle Kaithal", "Division_N": "W\/S Divn. Narwana", "Installati": "Dhanouri Disty", "level": "3.454", "AuthorizIn": 111.03, "indent": "85", "discharge": "92.953", "Date": "17\/09\/2021", "Time": "02:24:15PM" }, "geometry": { "type": "Point", "coordinates": [ 76.270317, 29.726101 ] } },
{ "type": "Feature", "properties": { "HeadName": "Shudkan Disty RD 118000", "stationNam": "Barsola Minor", "circlecode": "Bws Circle Kaithal", "Division_N": "W\/S Divn. Narwana", "Installati": "Barsola Minor", "level": "2.842", "AuthorizIn": 100.27, "indent": "99", "discharge": "111.113", "Date": "17\/09\/2021", "Time": "02:02:13PM" }, "geometry": { "type": "Point", "coordinates": [ 76.242165, 29.58646 ] } },
{ "type": "Feature", "properties": { "HeadName": "Kharkhara Head", "stationNam": "Dadri Feeder Main Canal", "circlecode": "Lws Circle Bhiwani", "Division_N": "Bond W\/S Divn. Bhiwani", "Installati": "Dadri Feeder (Main Canal )", "level": "2.015", "AuthorizIn": 0.0, "indent": "150", "discharge": "92.211", "Date": "17\/09\/2021", "Time": "02:08:02PM" }, "geometry": { "type": "Point", "coordinates": [ 76.363823, 28.92057 ] } },
{ "type": "Feature", "properties": { "HeadName": "Kharkhara Head", "stationNam": "Bhiwani Distributory", "circlecode": "Lws Circle Bhiwani", "Division_N": "Bond W\/S Divn. Bhiwani", "Installati": "Bhiwani Disty", "level": "0.000", "AuthorizIn": 0.0, "indent": "150", "discharge": "0.000", "Date": "17\/09\/2021", "Time": "02:03:01PM" }, "geometry": { "type": "Point", "coordinates": [ 76.362984, 28.920694 ] } },
{ "type": "Feature", "properties": { "HeadName": "Jui Canal RD 89404", "stationNam": "Behal Distributory", "circlecode": "Yamuna Water Service Circle Bhiwani", "Division_N": "LWS Divn. Bhiwani", "Installati": "Behal Disty", "level": "4.021", "AuthorizIn": 0.0, "indent": "30", "discharge": "37.011", "Date": "17\/09\/2021", "Time": "02:08:00PM" }, "geometry": { "type": "Point", "coordinates": [ 75.815491, 28.642395 ] } },
{ "type": "Feature", "properties": { "HeadName": "Kharkhara Head", "stationNam": "Dadri Distributory", "circlecode": "Lws Circle Bhiwani", "Division_N": "Bond W\/S Divn. Bhiwani", "Installati": "Dadri Disty", "level": "2.505", "AuthorizIn": null, "indent": null, "discharge": "43.588", "Date": "17\/09\/2021", "Time": "10:39:56AM" }, "geometry": { "type": "Point", "coordinates": [ 76.331657, 28.813314 ] } },
{ "type": "Feature", "properties": { "HeadName": "Jhajjar Sub Branch RD 62107\/T", "stationNam": "Jhajjar Distributory", "circlecode": "Jhajjar WS Circle Jhajjar", "Division_N": "Jhajjar W\/S Divn Jhajjar", "Installati": "Jhajjar Disty", "level": "0.272", "AuthorizIn": 204.0, "indent": "0", "discharge": "10.871", "Date": "17\/09\/2021", "Time": "01:34:09PM" }, "geometry": { "type": "Point", "coordinates": [ 76.588837, 28.723354 ] } },
{ "type": "Feature", "properties": { "HeadName": "JLN Feeder RD 235070", "stationNam": "Loharu Feeder", "circlecode": "Lws Circle Bhiwani", "Division_N": "LWS Divn. Ch. Dadri", "Installati": "Loharu Feeder", "level": "1.954", "AuthorizIn": 0.0, "indent": "380", "discharge": "125.242", "Date": "17\/09\/2021", "Time": "02:19:03PM" }, "geometry": { "type": "Point", "coordinates": [ 76.538437, 28.707968 ] } },
{ "type": "Feature", "properties": { "HeadName": "Loharu Feeder RD 97000", "stationNam": "Loharu Canal", "circlecode": "Lws Circle Bhiwani", "Division_N": "LWS Divn. Ch. Dadri", "Installati": "Loharu Canal", "level": "9.973", "AuthorizIn": 0.0, "indent": "380", "discharge": "325.420", "Date": "17\/09\/2021", "Time": "02:06:46PM" }, "geometry": { "type": "Point", "coordinates": [ 76.241341, 28.610981 ] } },
{ "type": "Feature", "properties": { "HeadName": "Loharu Feeder RD 42400", "stationNam": "Badhwana Distributory", "circlecode": "Lws Circle Bhiwani", "Division_N": "LWS Divn. Ch. Dadri", "Installati": "Badhwana Disty", "level": "0.000", "AuthorizIn": 0.0, "indent": "10", "discharge": "0.000", "Date": "17\/09\/2021", "Time": "02:08:54PM" }, "geometry": { "type": "Point", "coordinates": [ 76.422752, 28.644243 ] } },
{ "type": "Feature", "properties": { "HeadName": "Loharu Canal RD 97050", "stationNam": "Sorra Distributory", "circlecode": "Lws Circle Bhiwani", "Division_N": "LWS Divn. Bhiwani", "Installati": "Sorra Disty", "level": "2.805", "AuthorizIn": 0.0, "indent": "50", "discharge": "54.324", "Date": "17\/09\/2021", "Time": "02:19:08PM" }, "geometry": { "type": "Point", "coordinates": [ 76.006302, 28.50544 ] } },
{ "type": "Feature", "properties": { "HeadName": "Loharu Canal RD 115000", "stationNam": "Loharu Distributory", "circlecode": "Lws Circle Bhiwani", "Division_N": "LWS Divn. Bhiwani", "Installati": "Loharu Disty", "level": "0.000", "AuthorizIn": 0.0, "indent": "0", "discharge": "0.000", "Date": "17\/09\/2021", "Time": "02:21:51PM" }, "geometry": { "type": "Point", "coordinates": [ 75.980377, 28.462105 ] } },
{ "type": "Feature", "properties": { "HeadName": "Narnaul Branch RD 96785", "stationNam": "Ateli Distributory", "circlecode": "Jln WS Circle Narnaul", "Division_N": "M\/Garh Canal W\/S Divn. Narnaul", "Installati": "Ateli Disty", "level": "5.560", "AuthorizIn": 0.0, "indent": "225", "discharge": "124.501", "Date": "17\/09\/2021", "Time": "02:04:33PM" }, "geometry": { "type": "Point", "coordinates": [ 76.109019, 28.085998 ] } },
{ "type": "Feature", "properties": { "HeadName": "Narnaul Branch RD 96785", "stationNam": "Narnaul Distributory", "circlecode": "Jln WS Circle Narnaul", "Division_N": "M\/Garh Canal W\/S Divn. Narnaul", "Installati": "Narnaul Disty", "level": "5.889", "AuthorizIn": 0.0, "indent": "175", "discharge": "100.286", "Date": "17\/09\/2021", "Time": "02:25:00PM" }, "geometry": { "type": "Point", "coordinates": [ 76.108456, 28.085948 ] } },
{ "type": "Feature", "properties": { "HeadName": "Ateli Disty RD 15400", "stationNam": "Nolpur Distributory", "circlecode": "Jln WS Circle Narnaul", "Division_N": "M\/Garh Canal W\/S Divn. Narnaul", "Installati": "Nolpur Disty", "level": "4.846", "AuthorizIn": 0.0, "indent": "130", "discharge": "56.973", "Date": "17\/09\/2021", "Time": "02:18:27PM" }, "geometry": { "type": "Point", "coordinates": [ 76.156387, 28.085466 ] } },
{ "type": "Feature", "properties": { "HeadName": "Narnaul Dy RD 16400", "stationNam": "Shahbazpur Distributory", "circlecode": "Jln WS Circle Narnaul", "Division_N": "M\/Garh Canal W\/S Divn. Narnaul", "Installati": "Shahbazpur Disty", "level": "4.383", "AuthorizIn": 0.0, "indent": "60", "discharge": "47.764", "Date": "17\/09\/2021", "Time": "02:31:25PM" }, "geometry": { "type": "Point", "coordinates": [ 76.088034, 28.047401 ] } },
{ "type": "Feature", "properties": { "HeadName": "Salahwas Lift Channel RD 35675", "stationNam": "Rattanthal Distributory", "circlecode": "Jhajjar WS Circle Jhajjar", "Division_N": "RLI W\/S Divn. Jhajjar", "Installati": "Rattanthal Disty", "level": "1.954", "AuthorizIn": 0.0, "indent": "20", "discharge": "8.537", "Date": "17\/09\/2021", "Time": "01:46:06PM" }, "geometry": { "type": "Point", "coordinates": [ 76.581284, 28.439918 ] } },
{ "type": "Feature", "properties": { "HeadName": "Butana Branch Tail", "stationNam": "Bhiwani Sub Branch", "circlecode": "Yamuna Water Service Circle Rohtak", "Division_N": "Rohtak W\/S Divn. Rohtak", "Installati": "Bhiwani Sub Branch", "level": "0.000", "AuthorizIn": 0.0, "indent": "0", "discharge": "0.000", "Date": "17\/09\/2021", "Time": "02:32:01PM" }, "geometry": { "type": "Point", "coordinates": [ 76.498009, 29.147209 ] } },
{ "type": "Feature", "properties": { "HeadName": "Butana Branch Tail", "stationNam": "Kahanaur Sub Branch", "circlecode": "Yamuna Water Service Circle Rohtak", "Division_N": "Rohtak W\/S Divn. Rohtak", "Installati": "Kahanaur Sub Branch", "level": "0.000", "AuthorizIn": 0.0, "indent": "0", "discharge": "0.000", "Date": "17\/09\/2021", "Time": "10:59:06AM" }, "geometry": { "type": "Point", "coordinates": [ 76.513191, 29.158133 ] } },
{ "type": "Feature", "properties": { "HeadName": "Head Jhajjar Sub Branch", "stationNam": "Jhajjar Sub Branch", "circlecode": "Yamuna Water Service Circle Rohtak", "Division_N": "Sampla W\/S Divn. Rohtak", "Installati": "Jhajjar Sub Branch", "level": "1.589", "AuthorizIn": 419.0, "indent": "0", "discharge": "49.739", "Date": "17\/09\/2021", "Time": "02:17:00PM" }, "geometry": { "type": "Point", "coordinates": [ 76.619537, 28.861938 ] } },
{ "type": "Feature", "properties": { "HeadName": "Head Jhajjar Sub Branch", "stationNam": "Dulhera Distributory", "circlecode": "Yamuna Water Service Circle Rohtak", "Division_N": "Sampla W\/S Divn. Rohtak", "Installati": "Dulhera Disty", "level": "0.000", "AuthorizIn": 382.0, "indent": "0", "discharge": "0.000", "Date": "17\/09\/2021", "Time": "02:19:50PM" }, "geometry": { "type": "Point", "coordinates": [ 76.6208, 28.8613 ] } },
{ "type": "Feature", "properties": { "HeadName": "Khubru Head", "stationNam": "JLN Feeder", "circlecode": "Jhajjar WS Circle Jhajjar", "Division_N": "Feeder W\/S Divn. Rohtak", "Installati": "JLN Feeder", "level": "5.680", "AuthorizIn": 0.0, "indent": "1100", "discharge": "1114.940", "Date": "17\/09\/2021", "Time": "02:25:13PM" }, "geometry": { "type": "Point", "coordinates": [ 76.894859, 29.161287 ] } },
{ "type": "Feature", "properties": { "HeadName": "Butana Branch RD  83", "stationNam": "Butana Branch DS 83", "circlecode": "Yamuna Water Service Circle Rohtak", "Division_N": "W\/S Divn. Gohana", "Installati": "Butana Branch", "level": "0.000", "AuthorizIn": null, "indent": null, "discharge": "0.000", "Date": "17\/09\/2021", "Time": "10:41:37AM" }, "geometry": { "type": "Point", "coordinates": [ 76.569229, 29.227383 ] } },
{ "type": "Feature", "properties": { "HeadName": "Khubru Head", "stationNam": "Bhalaut Sub Branch", "circlecode": "Yamuna Water Service Circle Rohtak", "Division_N": "W\/S Divn. Gohana", "Installati": "Bhalaut Sub Branch", "level": "0.000", "AuthorizIn": 1252.0, "indent": "0", "discharge": "0.000", "Date": "17\/09\/2021", "Time": "02:24:08PM" }, "geometry": { "type": "Point", "coordinates": [ 76.890366, 29.157396 ] } },
{ "type": "Feature", "properties": { "HeadName": "Butana Head", "stationNam": "Butana Distributory", "circlecode": "Yamuna Water Service Circle Rohtak", "Division_N": "W\/S Divn. Gohana", "Installati": "Butana Disty", "level": "0.923", "AuthorizIn": 0.0, "indent": "70", "discharge": "52.566", "Date": "17\/09\/2021", "Time": "02:16:15PM" }, "geometry": { "type": "Point", "coordinates": [ 76.636307, 29.277367 ] } },
{ "type": "Feature", "properties": { "HeadName": "Mohla Head", "stationNam": "Sunder Sub Branch DS", "circlecode": "Yamuna Water Service Circle Jind", "Division_N": "Bhiwani W\/S Divn. Bhiwani", "Installati": "Sunder Sub Branch", "level": "4.541", "AuthorizIn": 0.0, "indent": "800", "discharge": "430.790", "Date": "17\/09\/2021", "Time": "02:02:27PM" }, "geometry": { "type": "Point", "coordinates": [ 76.261253, 29.115194 ] } },
{ "type": "Feature", "properties": { "HeadName": "Sunder Sub Branch RD 179128", "stationNam": "Sunder Distributory", "circlecode": "Yamuna Water Service Circle Bhiwani", "Division_N": "Bhiwani W\/S Divn. Bhiwani", "Installati": "Sunder Disty", "level": "4.302", "AuthorizIn": 0.0, "indent": "500", "discharge": "513.344", "Date": "17\/09\/2021", "Time": "02:06:47PM" }, "geometry": { "type": "Point", "coordinates": [ 76.12825, 29.022467 ] } },
{ "type": "Feature", "properties": { "HeadName": "Mohla Head", "stationNam": "Mithathal Feeder", "circlecode": "Yamuna Water Service Circle Bhiwani", "Division_N": "Bhiwani W\/S Divn. Bhiwani", "Installati": "Mithathal Feeder", "level": "0.000", "AuthorizIn": 0.0, "indent": "150", "discharge": "0.000", "Date": "17\/09\/2021", "Time": "02:07:00PM" }, "geometry": { "type": "Point", "coordinates": [ 76.256912, 29.082502 ] } },
{ "type": "Feature", "properties": { "HeadName": "Hamida Head", "stationNam": "Main Line Lower DS", "circlecode": "Hkb Circle Jagadhari", "Division_N": "Dadupur W\/S Divn. Y\/Nagar", "Installati": "WJC Main Line Lower", "level": "6.622", "AuthorizIn": null, "indent": "5850", "discharge": "6912.848", "Date": "17\/09\/2021", "Time": "02:28:08PM" }, "geometry": { "type": "Point", "coordinates": [ 77.230019, 30.080353 ] } },
{ "type": "Feature", "properties": { "HeadName": "Dadupur Head", "stationNam": "Main Line Lower Head", "circlecode": "Hkb Circle Jagadhari", "Division_N": "Dadupur W\/S Divn. Y\/Nagar", "Installati": "WJC Main Line Lower", "level": "11.148", "AuthorizIn": null, "indent": "8700", "discharge": "9125.429", "Date": "17\/09\/2021", "Time": "02:25:35PM" }, "geometry": { "type": "Point", "coordinates": [ 77.366554, 30.157606 ] } },
{ "type": "Feature", "properties": { "HeadName": "Hamida Head", "stationNam": "Aug. Canal", "circlecode": "Yamuna Water Service Circle Karnal", "Division_N": "Indri W\/S Divn. Karnal", "Installati": "Aug. Canal", "level": "4.991", "AuthorizIn": null, "indent": "1800", "discharge": "1892.993", "Date": "17\/09\/2021", "Time": "02:13:10PM" }, "geometry": { "type": "Point", "coordinates": [ 77.271103, 30.094709 ] } },
{ "type": "Feature", "properties": { "HeadName": "Mohla Head", "stationNam": "Jui Feeder", "circlecode": "Yamuna Water Service Circle Bhiwani", "Division_N": "Jui W\/S Divn. Bhiwani", "Installati": "Jui Feeder", "level": "6.737", "AuthorizIn": 0.0, "indent": "750", "discharge": "902.462", "Date": "17\/09\/2021", "Time": "02:06:07PM" }, "geometry": { "type": "Point", "coordinates": [ 76.25695, 29.082447 ] } },
{ "type": "Feature", "properties": { "HeadName": "Jui Feeder RD 88000", "stationNam": "Nigana Feeder", "circlecode": "Yamuna Water Service Circle Bhiwani", "Division_N": "Jui W\/S Divn. Bhiwani", "Installati": "Nigana Feeder", "level": "5.207", "AuthorizIn": 0.0, "indent": "370", "discharge": "399.676", "Date": "17\/09\/2021", "Time": "02:04:54PM" }, "geometry": { "type": "Point", "coordinates": [ 76.189766, 28.89748 ] } },
{ "type": "Feature", "properties": { "HeadName": "Jui Feeder RD 173400", "stationNam": "Jui Canal", "circlecode": "Yamuna Water Service Circle Bhiwani", "Division_N": "Jui W\/S Divn. Bhiwani", "Installati": "Ch. Bansi Lal Canal", "level": "5.930", "AuthorizIn": null, "indent": null, "discharge": "360.929", "Date": "17\/09\/2021", "Time": "02:17:35PM" }, "geometry": { "type": "Point", "coordinates": [ 76.068291, 28.713743 ] } },
{ "type": "Feature", "properties": { "HeadName": "Nigana Feeder RD 91950", "stationNam": "Nigana Canal", "circlecode": "Yamuna Water Service Circle Bhiwani", "Division_N": "Jui W\/S Divn. Bhiwani", "Installati": "Nigana Canal", "level": "6.714", "AuthorizIn": 0.0, "indent": "250", "discharge": "208.292", "Date": "17\/09\/2021", "Time": "02:03:39PM" }, "geometry": { "type": "Point", "coordinates": [ 75.923599, 28.837082 ] } },
{ "type": "Feature", "properties": { "HeadName": "Dadri Feeder (Main Canal) Tail", "stationNam": "Bond Distributory 0-51000", "circlecode": "Lws Circle Bhiwani", "Division_N": "Bond W\/S Divn. Bhiwani", "Installati": "Bond Disty 0-51000", "level": "1.712", "AuthorizIn": 0.0, "indent": "120", "discharge": "23.605", "Date": "17\/09\/2021", "Time": "02:28:52PM" }, "geometry": { "type": "Point", "coordinates": [ 76.332245, 28.812983 ] } },
{ "type": "Feature", "properties": { "HeadName": "Indri Head", "stationNam": "WJC Main Line", "circlecode": "Yamuna Water Service Circle Karnal", "Division_N": "Karnal W\/S Divn. Karnal", "Installati": "WJC MAIN BRANCH", "level": "4.596", "AuthorizIn": null, "indent": "4000", "discharge": "3794.121", "Date": "17\/09\/2021", "Time": "02:29:44PM" }, "geometry": { "type": "Point", "coordinates": [ 77.013687, 29.848791 ] } },
{ "type": "Feature", "properties": { "HeadName": "Budhera Head", "stationNam": "SYL Canal", "circlecode": "Yamuna Water Service Circle Karnal", "Division_N": "Karnal W\/S Divn. Karnal", "Installati": "S.Y.L CANAL", "level": "0.000", "AuthorizIn": null, "indent": "0", "discharge": "0.000", "Date": "17\/09\/2021", "Time": "02:03:11PM" }, "geometry": { "type": "Point", "coordinates": [ 76.801575, 29.856337 ] } },
{ "type": "Feature", "properties": { "HeadName": "Budhera Head", "stationNam": "NBL Link Channel", "circlecode": "Yamuna Water Service Circle Karnal", "Division_N": "Karnal W\/S Divn. Karnal", "Installati": "NBK Link", "level": "11.034", "AuthorizIn": 1500.0, "indent": "1200", "discharge": "1146.366", "Date": "17\/09\/2021", "Time": "02:29:29PM" }, "geometry": { "type": "Point", "coordinates": [ 76.801323, 29.856289 ] } },
{ "type": "Feature", "properties": { "HeadName": "Munak Head", "stationNam": "Parallel Delhi Branch", "circlecode": "Yamuna Water Service Circle Karnal", "Division_N": "Panipat W\/S Divn. Panipat", "Installati": "PARALLEL DELHI BRANCH", "level": "6.535", "AuthorizIn": null, "indent": "2148", "discharge": "1887.927", "Date": "17\/09\/2021", "Time": "02:11:03PM" }, "geometry": { "type": "Point", "coordinates": [ 76.84063, 29.504686 ] } },
{ "type": "Feature", "properties": { "HeadName": "Munak Head", "stationNam": "Carrier Lined Channel", "circlecode": "Yamuna Water Service Circle Karnal", "Division_N": "Panipat W\/S Divn. Panipat", "Installati": "CARRIER LINED CHANNEL", "level": "3.734", "AuthorizIn": null, "indent": "750", "discharge": "732.965", "Date": "17\/09\/2021", "Time": "02:16:18PM" }, "geometry": { "type": "Point", "coordinates": [ 76.838242, 29.519976 ] } },
{ "type": "Feature", "properties": { "HeadName": "Munak Head", "stationNam": "Gohana Distributory", "circlecode": "Yamuna Water Service Circle Karnal", "Division_N": "Panipat W\/S Divn. Panipat", "Installati": "Gohana Disty", "level": "2.687", "AuthorizIn": 0.0, "indent": "200", "discharge": "176.551", "Date": "17\/09\/2021", "Time": "02:14:53PM" }, "geometry": { "type": "Point", "coordinates": [ 76.83651, 29.522409 ] } },
{ "type": "Feature", "properties": { "HeadName": "Siwani Canal RD 47000", "stationNam": "Motipura Distributory", "circlecode": "Yamuna Water Service Circle Bhiwani", "Division_N": "Sewani W\/S Divn. Bhiwani", "Installati": "Motipura Disty", "level": "5.079", "AuthorizIn": 103.5, "indent": "102.61", "discharge": "82.455", "Date": "17\/09\/2021", "Time": "02:22:36PM" }, "geometry": { "type": "Point", "coordinates": [ 75.719467, 28.79022 ] } },
{ "type": "Feature", "properties": { "HeadName": "Butana Branch Tail", "stationNam": "Sunder Sub Branch", "circlecode": "Yamuna Water Service Circle Bhiwani", "Division_N": "W\/S Divn. Jind", "Installati": "Sunder Sub Branch", "level": "4.284", "AuthorizIn": null, "indent": null, "discharge": "1328.597", "Date": "17\/09\/2021", "Time": "02:30:44PM" }, "geometry": { "type": "Point", "coordinates": [ 76.553215, 29.230295 ] } },
{ "type": "Feature", "properties": { "HeadName": "Sunder Sub Branch RD 56402", "stationNam": "Karsola Minor", "circlecode": "Yamuna Water Service Circle Jind", "Division_N": "W\/S Divn. Jind", "Installati": "Karsola Minor", "level": "1.950", "AuthorizIn": 0.0, "indent": "115", "discharge": "43.496", "Date": "17\/09\/2021", "Time": "02:06:36PM" }, "geometry": { "type": "Point", "coordinates": [ 76.42379, 29.1893 ] } },
{ "type": "Feature", "properties": { "HeadName": "Randana Head", "stationNam": "Muana Distributory", "circlecode": "Yamuna Water Service Circle Jind", "Division_N": "W\/S Divn. Jind", "Installati": "Muana Disty", "level": "3.685", "AuthorizIn": 0.0, "indent": "55", "discharge": "46.698", "Date": "17\/09\/2021", "Time": "02:18:29PM" }, "geometry": { "type": "Point", "coordinates": [ 76.56411, 29.403328 ] } },
{ "type": "Feature", "properties": { "HeadName": "Munak Head", "stationNam": "Hansi Branch", "circlecode": "Yamuna Water Service Circle Jind", "Division_N": "W\/S Divn.Safidon", "Installati": "Hansi Branch", "level": "5.379", "AuthorizIn": 0.0, "indent": "2900", "discharge": "2807.571", "Date": "17\/09\/2021", "Time": "02:21:27PM" }, "geometry": { "type": "Point", "coordinates": [ 76.836308, 29.522713 ] } },
{ "type": "Feature", "properties": { "HeadName": "Anta Head", "stationNam": "Hansi Branch Distributory", "circlecode": "Yamuna Water Service Circle Jind", "Division_N": "W\/S Divn.Safidon", "Installati": "Hansi Branch", "level": "4.638", "AuthorizIn": 0.0, "indent": "1400", "discharge": "1428.247", "Date": "17\/09\/2021", "Time": "02:29:21PM" }, "geometry": { "type": "Point", "coordinates": [ 76.700119, 29.413237 ] } },
{ "type": "Feature", "properties": { "HeadName": "Anta Head", "stationNam": "Butana Branch", "circlecode": "Yamuna Water Service Circle Jind", "Division_N": "W\/S Divn.Safidon", "Installati": "BUTANA BRANCH", "level": "4.617", "AuthorizIn": 0.0, "indent": "1300", "discharge": "1283.718", "Date": "17\/09\/2021", "Time": "02:29:37PM" }, "geometry": { "type": "Point", "coordinates": [ 76.703369, 29.403788 ] } },
{ "type": "Feature", "properties": { "HeadName": "Hansi Branch RD 59600\/L", "stationNam": "Jind Distributory No. 3", "circlecode": "Yamuna Water Service Circle Jind", "Division_N": "W\/S Divn.Safidon", "Installati": "Jind Disty No. 3", "level": "2.829", "AuthorizIn": 0.0, "indent": "125", "discharge": "120.302", "Date": "17\/09\/2021", "Time": "02:12:39PM" }, "geometry": { "type": "Point", "coordinates": [ 76.704804, 29.412849 ] } },
{ "type": "Feature", "properties": { "HeadName": "Bhakhra Main Branch RD 223928\/L", "stationNam": "Rori Branch", "circlecode": "Bws Circle Sirsa", "Division_N": "Sirsa W\/S Divn. Sirsa", "Installati": "Rori Branch", "level": "0.000", "AuthorizIn": 0.0, "indent": "0", "discharge": "0.000", "Date": "17\/09\/2021", "Time": "02:03:34PM" }, "geometry": { "type": "Point", "coordinates": [ 75.207497, 29.754028 ] } }
]
}
