{"type":"FeatureCollection", "features": [
{"type":"Feature","geometry":{"type":"Point","coordinates":[75.6062543778685,29.442813323621966]},"properties":{"HeadName":"Kajal Head","stationNam":"Kishangarh Sub Branch","circlecode":"Bws Circle Hisar","Division_N":"Adampur W/S Divn. Hisar","Installati":"Kishangarh Sub Branch","level":"3.905","AuthorizIn":603.34,"indent":"750","discharge":"771.000","Date":"18/09/2021","Time":"08:35:16AM"}},
{"type":"Feature","geometry":{"type":"Point","coordinates":[75.964424,29.501015]},"properties":{"HeadName":"Sirsa Branch RD 388500","stationNam":"Pabra Sub Branch","circlecode":"Bws Circle Hisar","Division_N":"Adampur W/S Divn. Hisar","Installati":"Pabra Sub Branch","level":"5.111","AuthorizIn":376.5,"indent":"360","discharge":"310.148","Date":"18/09/2021","Time":"08:45:58AM"}},
{"type":"Feature","geometry":{"type":"Point","coordinates":[75.6045,29.433691]},"properties":{"HeadName":"Kajal Head","stationNam":"Sidhmukh Feeder","circlecode":"Bws Circle Hisar","Division_N":"Adampur W/S Divn. Hisar","Installati":"Sidhmukh Feeder","level":"0.838","AuthorizIn":113,"indent":"0","discharge":"95.003","Date":"18/09/2021","Time":"08:45:55AM"}},
{"type":"Feature","geometry":{"type":"Point","coordinates":[75.919403,29.443478]},"properties":{"HeadName":"Pabra Sub Branch RD 36680","stationNam":"Sarsaud Distributory","circlecode":"Bws Circle Hisar","Division_N":"Adampur W/S Divn. Hisar","Installati":"Sarsaud Disty","level":"1.425","AuthorizIn":264.21,"indent":"225","discharge":"179.313","Date":"18/09/2021","Time":"08:20:36AM"}},
{"type":"Feature","geometry":{"type":"Point","coordinates":[75.890015,29.387335]},"properties":{"HeadName":"Sarsaund Disty RD 26494","stationNam":"Balak Minor","circlecode":"Bws Circle Hisar","Division_N":"Adampur W/S Divn. Hisar","Installati":"Balak Minor","level":"2.113","AuthorizIn":180.46,"indent":"177","discharge":"165.578","Date":"18/09/2021","Time":"08:18:16AM"}},
{"type":"Feature","geometry":{"type":"Point","coordinates":[76.201851,29.261631]},"properties":{"HeadName":"Hansi Branch RD 238326","stationNam":"Petwar Distributory","circlecode":"Bws Circle Hisar","Division_N":"Hansi W/S Divn. Hansi","Installati":"Petwar Disty","level":"4.847","AuthorizIn":null,"indent":"","discharge":"519.398","Date":"18/09/2021","Time":"08:24:13AM"}},
{"type":"Feature","geometry":{"type":"Point","coordinates":[76.201431,29.263382]},"properties":{"HeadName":"Hansi Branch Tail","stationNam":"Hisar Major Distributory","circlecode":"Bws Circle Hisar","Division_N":"Hansi W/S Divn. Hansi","Installati":"Hisar Major Disty","level":"3.767","AuthorizIn":0,"indent":"400","discharge":"260.796","Date":"18/09/2021","Time":"08:19:09AM"}},
{"type":"Feature","geometry":{"type":"Point","coordinates":[76.2043,29.268093]},"properties":{"HeadName":"Hansi Branch RD235768","stationNam":"Masudpur Distributory","circlecode":"Bws Circle Hisar","Division_N":"Hansi W/S Divn. Hansi","Installati":"Masudpur Disty","level":"3.132","AuthorizIn":0,"indent":"150","discharge":"115.352","Date":"18/09/2021","Time":"08:17:27AM"}},
{"type":"Feature","geometry":{"type":"Point","coordinates":[75.825989,29.086428]},"properties":{"HeadName":"Petwar Dy RD 160142","stationNam":"OP Jindal Nalwa Distributory","circlecode":"Bws Circle Hisar","Division_N":"Hansi W/S Divn. Hansi","Installati":"OP Jindal Nalwa Disaty","level":"3.782","AuthorizIn":0,"indent":"","discharge":"88.380","Date":"18/09/2021","Time":"08:39:51AM"}},
{"type":"Feature","geometry":{"type":"Point","coordinates":[76.10316125929717,29.550274948049257]},"properties":{"HeadName":"Budanpur Head","stationNam":"Barwala Branch","circlecode":"Bws Circle Hisar","Division_N":"Hisar W/S Divn. Hisar","Installati":"Barwala Branch","level":"6.331","AuthorizIn":600,"indent":"1250","discharge":"1211.860","Date":"18/09/2021","Time":"08:26:28AM"}},
{"type":"Feature","geometry":{"type":"Point","coordinates":[75.876274,29.240951]},"properties":{"HeadName":"Rajli Head","stationNam":"Balsamand Sub Branch","circlecode":"Bws Circle Hisar","Division_N":"Hisar W/S Divn. Hisar","Installati":"Balsamand Sub-Branch","level":"4.544","AuthorizIn":539,"indent":"750","discharge":"660.640","Date":"18/09/2021","Time":"08:40:15AM"}},
{"type":"Feature","geometry":{"type":"Point","coordinates":[75.79249213100007,29.094953172000032]},"properties":{"HeadName":"Balsamand Sub-Branch. RD 69840","stationNam":"Old Siwani Feeder","circlecode":"Bws Circle Hisar","Division_N":"Hisar W/S Divn. Hisar","Installati":"Old Siwani Feeder","level":"5.726","AuthorizIn":350,"indent":"650","discharge":"350.400","Date":"18/09/2021","Time":"08:12:31AM"}},
{"type":"Feature","geometry":{"type":"Point","coordinates":[75.877213,29.269404]},"properties":{"HeadName":"Rajli Head","stationNam":"Rana Distributory","circlecode":"Bws Circle Hisar","Division_N":"Hisar W/S Divn. Hisar","Installati":"Rana Disty","level":"0.000","AuthorizIn":0,"indent":"280","discharge":"0.000","Date":"18/09/2021","Time":"08:44:03AM"}},
{"type":"Feature","geometry":{"type":"Point","coordinates":[75.677917,29.135971]},"properties":{"HeadName":"Balsamand Sub Branch RD 105000","stationNam":"Balsamand Distributory","circlecode":"Bws Circle Hisar","Division_N":"Hisar W/S Divn. Hisar","Installati":"Balsamand Disty","level":"0.000","AuthorizIn":0,"indent":"0","discharge":"0.000","Date":"18/09/2021","Time":"08:29:52AM"}},
{"type":"Feature","geometry":{"type":"Point","coordinates":[76.636139,29.949736]},"properties":{"HeadName":"Saraswati Feeder RD 38000/T","stationNam":"Saraswati Distributory","circlecode":"Bws Circle Kaithal","Division_N":"Kaithal W/S Divn. Kaithal","Installati":"Saraswati Disty.","level":"6.067","AuthorizIn":514,"indent":"","discharge":"194.773","Date":"18/09/2021","Time":"08:44:44AM"}},
{"type":"Feature","geometry":{"type":"Point","coordinates":[76.51355,30.03158]},"properties":{"HeadName":"Narwana Branch RD 230983","stationNam":"Markanda Distributory","circlecode":"Bws Circle Kaithal","Division_N":"Kaithal W/S Divn. Kaithal","Installati":"Markanda Disty","level":"3.527","AuthorizIn":null,"indent":"","discharge":"107.607","Date":"18/09/2021","Time":"08:41:13AM"}},
{"type":"Feature","geometry":{"type":"Point","coordinates":[76.637207,29.94857]},"properties":{"HeadName":"Saraswati Disty. RD 10800","stationNam":"Kaithal Distributory","circlecode":"Bws Circle Kaithal","Division_N":"Kaithal W/S Divn. Kaithal","Installati":"Kaithal Disty.","level":"2.187","AuthorizIn":117,"indent":"","discharge":"61.490","Date":"18/09/2021","Time":"08:28:15AM"}},
{"type":"Feature","geometry":{"type":"Point","coordinates":[75.210495,29.394646]},"properties":{"HeadName":"Nehrana Head","stationNam":"Sheranwali Distributory","circlecode":"Bws Circle Sirsa","Division_N":"Neharana W/S Divn. Sirsa","Installati":"Sheranwali Disty.","level":"2.468","AuthorizIn":224.36,"indent":"","discharge":"172.110","Date":"18/09/2021","Time":"08:06:42AM"}},
{"type":"Feature","geometry":{"type":"Point","coordinates":[75.210144,29.393824]},"properties":{"HeadName":"Nehrana Head","stationNam":"Baruwali Distributory","circlecode":"Bws Circle Sirsa","Division_N":"Neharana W/S Divn. Sirsa","Installati":"Baruwali Disty.","level":"0.000","AuthorizIn":0,"indent":"","discharge":"0.000","Date":"18/09/2021","Time":"08:07:40AM"}},
{"type":"Feature","geometry":{"type":"Point","coordinates":[75.443428,29.419086]},"properties":{"HeadName":"Fatehabad Branch RD 219954","stationNam":"Sirsa Major Distributory","circlecode":"Bws Circle Fatehabad","Division_N":"W/S Divn. Fatehabad","Installati":"Sirsa Major Disty","level":"2.474","AuthorizIn":0,"indent":"170","discharge":"167.384","Date":"18/09/2021","Time":"07:38:47AM"}},
{"type":"Feature","geometry":{"type":"Point","coordinates":[75.210861,29.393349]},"properties":{"HeadName":"Nehrana Head","stationNam":"Kutiyana Distributory","circlecode":"Bws Circle Sirsa","Division_N":"Neharana W/S Divn. Sirsa","Installati":"Kutiyana Disty.","level":"0.000","AuthorizIn":0,"indent":"","discharge":"0.000","Date":"18/09/2021","Time":"08:21:31AM"}},
{"type":"Feature","geometry":{"type":"Point","coordinates":[75.316223,29.396601]},"properties":{"HeadName":"Fatehabad  Branch RD 265968/R","stationNam":"Banmandori Distributory","circlecode":"Bws Circle Sirsa","Division_N":"Neharana W/S Divn. Sirsa","Installati":"Banmandori Disty","level":"2.044","AuthorizIn":151.5,"indent":"","discharge":"100.718","Date":"18/09/2021","Time":"08:21:04AM"}},
{"type":"Feature","geometry":{"type":"Point","coordinates":[76.751457,29.876711]},"properties":{"HeadName":"Budhera Head","stationNam":"Sirsa Branch","circlecode":"Bws Circle Kaithal","Division_N":"Pundri W/S Divn. Kaithal","Installati":"Sirsa Branch","level":"6.135","AuthorizIn":null,"indent":"","discharge":"1640.935","Date":"18/09/2021","Time":"08:00:18AM"}},
{"type":"Feature","geometry":{"type":"Point","coordinates":[76.77699,29.865951]},"properties":{"HeadName":"Budhera Head","stationNam":"Habri Sub Branch","circlecode":"Bws Circle Kaithal","Division_N":"Pundri W/S Divn. Kaithal","Installati":"Habri Sub Branch","level":"5.292","AuthorizIn":0,"indent":"","discharge":"602.114","Date":"18/09/2021","Time":"08:43:42AM"}},
{"type":"Feature","geometry":{"type":"Point","coordinates":[75.088814,29.836124]},"properties":{"HeadName":"BMB RD 273000","stationNam":"Bhakra main branch DS 273000","circlecode":"Bws Circle Sirsa","Division_N":"Rori W/S Divn. Sirsa","Installati":"Bhakra Main Branch","level":"11.684","AuthorizIn":null,"indent":"","discharge":"805.936","Date":"18/09/2021","Time":"08:31:39AM"}},
{"type":"Feature","geometry":{"type":"Point","coordinates":[75.096108,29.824312]},"properties":{"HeadName":"Bhakhra Main Branch RD 258000/L","stationNam":"Kaluana Distributory","circlecode":"Bws Circle Sirsa","Division_N":"Rori W/S Divn. Sirsa","Installati":"Kaluana Disty","level":"0.000","AuthorizIn":0,"indent":"","discharge":"0.000","Date":"18/09/2021","Time":"08:18:08AM"}},
{"type":"Feature","geometry":{"type":"Point","coordinates":[74.972855,29.872391]},"properties":{"HeadName":"Kalanwali Head","stationNam":"Dabwali Distributory","circlecode":"Bws CircleSirsa","Division_N":"Rori W/S Divn. Sirsa","Installati":"Dabwali Disty","level":"0.000","AuthorizIn":0,"indent":"","discharge":"0.000","Date":"18/09/2021","Time":"08:32:31AM"}},
{"type":"Feature","geometry":{"type":"Point","coordinates":[75.119148,29.786196]},"properties":{"HeadName":"Bhakhra Main Branch RD 258000/L","stationNam":"Mammerkhera Distributory","circlecode":"Bws Circle Sirsa","Division_N":"Sirsa W/S Divn. Sirsa","Installati":"Mammerkhera Disty","level":"0.000","AuthorizIn":0,"indent":"","discharge":"0.000","Date":"18/09/2021","Time":"08:01:17AM"}},
{"type":"Feature","geometry":{"type":"Point","coordinates":[76.69883,30.229626]},"properties":{"HeadName":"H.C.P. Head","stationNam":"Narwana Branch Head","circlecode":"Syl Circle Ambala","Division_N":"SYL W/S Divn. Ambala","Installati":"Narwana Branch","level":"16.725","AuthorizIn":4147,"indent":"","discharge":"2392.022","Date":"18/09/2021","Time":"07:43:17AM"}},
{"type":"Feature","geometry":{"type":"Point","coordinates":[75.925781,29.711988]},"properties":{"HeadName":"Baliyala Head","stationNam":"BML upstream","circlecode":"Bws Circle Fatehabad","Division_N":"W/S Divn. Tohana","Installati":"Bhakra Main Line","level":"18.359","AuthorizIn":null,"indent":"","discharge":"3967.474","Date":"18/09/2021","Time":"08:17:23AM"}},
{"type":"Feature","geometry":{"type":"Point","coordinates":[75.902878,29.720032]},"properties":{"HeadName":"Baliyala Head","stationNam":"Bhakra Main Branch","circlecode":"Bws Circle Fatehabad","Division_N":"W/S Divn. Tohana","Installati":"Bhakra Main Branch","level":"11.402","AuthorizIn":823,"indent":"1758","discharge":"1674.854","Date":"18/09/2021","Time":"07:12:38AM"}},
{"type":"Feature","geometry":{"type":"Point","coordinates":[75.910004,29.699835]},"properties":{"HeadName":"Baliyala Head","stationNam":"Fatehabad Branch","circlecode":"Bws Circle Fatehabad","Division_N":"W/S Divn. Tohana","Installati":"Fatehabad Branch","level":"12.185","AuthorizIn":2160,"indent":"2000","discharge":"1902.504","Date":"18/09/2021","Time":"08:39:26AM"}},
{"type":"Feature","geometry":{"type":"Point","coordinates":[75.833382,29.725826]},"properties":{"HeadName":"Kudni Head","stationNam":"Ratia Branch","circlecode":"Bws Circle Fatehabad","Division_N":"W/S Divn. Tohana","Installati":"Ratia Branch","level":"8.160","AuthorizIn":630,"indent":"630","discharge":"627.478","Date":"18/09/2021","Time":"07:17:20AM"}},
{"type":"Feature","geometry":{"type":"Point","coordinates":[75.919365,29.714233]},"properties":{"HeadName":"Baliyala Head","stationNam":"Fatehabad Distributory","circlecode":"Bws Circle Fatehabad","Division_N":"W/S Divn. Tohana","Installati":"Fatehabad Distributory","level":"1.325","AuthorizIn":219.21,"indent":"219","discharge":"161.614","Date":"18/09/2021","Time":"08:27:16AM"}},
{"type":"Feature","geometry":{"type":"Point","coordinates":[76.115028,29.787844]},"properties":{"HeadName":"RD 9502","stationNam":"BML Barwala Link Channel","circlecode":"Bws Circle Kaithal","Division_N":"W/S Divn. Narwana","Installati":"B.M.L. Barwala Link","level":"15.928","AuthorizIn":1394,"indent":"1158","discharge":"1092.677","Date":"18/09/2021","Time":"08:28:51AM"}},
{"type":"Feature","geometry":{"type":"Point","coordinates":[76.34713,29.737017]},"properties":{"HeadName":"Chandana Head","stationNam":"Sirsa Branch DS","circlecode":"Bws Circle Kaithal","Division_N":"W/S Divn. Narwana","Installati":"Sirsa Branch","level":"4.753","AuthorizIn":1348.42,"indent":"800","discharge":"749.836","Date":"18/09/2021","Time":"08:43:01AM"}},
{"type":"Feature","geometry":{"type":"Point","coordinates":[76.489769,29.768646]},"properties":{"HeadName":"Kaukot Head","stationNam":"Shudkan Distributory","circlecode":"Bws Circle Kaithal","Division_N":"W/S Divn. Narwana","Installati":"Shudkan Disty","level":"4.813","AuthorizIn":512.88,"indent":"525","discharge":"422.520","Date":"18/09/2021","Time":"08:23:55AM"}},
{"type":"Feature","geometry":{"type":"Point","coordinates":[76.377877,29.746859]},"properties":{"HeadName":"Chandana Head","stationNam":"Dhamtan Distributory","circlecode":"Bws Circle Kaithal","Division_N":"W/S Divn. Narwana","Installati":"Dhamtan Disty.","level":"4.404","AuthorizIn":283.78,"indent":"350","discharge":"313.486","Date":"18/09/2021","Time":"08:16:07AM"}},
{"type":"Feature","geometry":{"type":"Point","coordinates":[76.126282,29.561993]},"properties":{"HeadName":"Sirsa Branch RD 336500","stationNam":"Barsola Feeder","circlecode":"Bws Circle Kaithal","Division_N":"W/S Divn. Narwana","Installati":"Barsola Feeder","level":"5.110","AuthorizIn":99.91,"indent":"100","discharge":"87.309","Date":"18/09/2021","Time":"07:57:00AM"}},
{"type":"Feature","geometry":{"type":"Point","coordinates":[76.270317,29.726101]},"properties":{"HeadName":"Dhamtan RD 35560","stationNam":"Dhanouri Distributory","circlecode":"Bws Circle Kaithal","Division_N":"W/S Divn. Narwana","Installati":"Dhanouri Disty","level":"3.092","AuthorizIn":111.03,"indent":"85","discharge":"76.778","Date":"18/09/2021","Time":"08:27:02AM"}},
{"type":"Feature","geometry":{"type":"Point","coordinates":[76.242165,29.58646]},"properties":{"HeadName":"Shudkan Disty RD 118000","stationNam":"Barsola Minor","circlecode":"Bws Circle Kaithal","Division_N":"W/S Divn. Narwana","Installati":"Barsola Minor","level":"2.711","AuthorizIn":100.27,"indent":"99","discharge":"104.526","Date":"18/09/2021","Time":"08:34:30AM"}},
{"type":"Feature","geometry":{"type":"Point","coordinates":[76.363823,28.92057]},"properties":{"HeadName":"Kharkhara Head","stationNam":"Dadri Feeder Main Canal","circlecode":"Lws Circle Bhiwani","Division_N":"Bond W/S Divn. Bhiwani","Installati":"Dadri Feeder (Main Canal )","level":"2.015","AuthorizIn":0,"indent":"","discharge":"92.211","Date":"18/09/2021","Time":"08:26:05AM"}},
{"type":"Feature","geometry":{"type":"Point","coordinates":[76.362984,28.920694]},"properties":{"HeadName":"Kharkhara Head","stationNam":"Bhiwani Distributory","circlecode":"Lws Circle Bhiwani","Division_N":"Bond W/S Divn. Bhiwani","Installati":"Bhiwani Disty","level":"0.000","AuthorizIn":0,"indent":"","discharge":"0.000","Date":"18/09/2021","Time":"08:13:26AM"}},
{"type":"Feature","geometry":{"type":"Point","coordinates":[75.815491,28.642395]},"properties":{"HeadName":"Jui Canal RD 89404","stationNam":"Behal Distributory","circlecode":"Yamuna Water Service Circle Bhiwani","Division_N":"LWS Divn. Bhiwani","Installati":"Behal Disty","level":"4.021","AuthorizIn":0,"indent":"","discharge":"37.011","Date":"18/09/2021","Time":"08:31:02AM"}},
{"type":"Feature","geometry":{"type":"Point","coordinates":[76.331657,28.813314]},"properties":{"HeadName":"Kharkhara Head","stationNam":"Dadri Distributory","circlecode":"Lws Circle Bhiwani","Division_N":"Bond W/S Divn. Bhiwani","Installati":"Dadri Disty","level":"2.703","AuthorizIn":null,"indent":"","discharge":"49.923","Date":"18/09/2021","Time":"07:36:29AM"}},
{"type":"Feature","geometry":{"type":"Point","coordinates":[76.588837,28.723354]},"properties":{"HeadName":"Jhajjar Sub Branch RD 62107/T","stationNam":"Jhajjar Distributory","circlecode":"Jhajjar WS Circle Jhajjar","Division_N":"Jhajjar W/S Divn Jhajjar","Installati":"Jhajjar Disty","level":"0.206","AuthorizIn":204,"indent":"","discharge":"8.237","Date":"18/09/2021","Time":"08:30:21AM"}},
{"type":"Feature","geometry":{"type":"Point","coordinates":[76.538437,28.707968]},"properties":{"HeadName":"JLN Feeder RD 235070","stationNam":"Loharu Feeder","circlecode":"Lws Circle Bhiwani","Division_N":"LWS Divn. Ch. Dadri","Installati":"Loharu Feeder","level":"2.514","AuthorizIn":0,"indent":"","discharge":"191.335","Date":"18/09/2021","Time":"08:29:49AM"}},
{"type":"Feature","geometry":{"type":"Point","coordinates":[76.241341,28.610981]},"properties":{"HeadName":"Loharu Feeder RD 97000","stationNam":"Loharu Canal","circlecode":"Lws Circle Bhiwani","Division_N":"LWS Divn. Ch. Dadri","Installati":"Loharu Canal","level":"9.841","AuthorizIn":0,"indent":"","discharge":"315.749","Date":"18/09/2021","Time":"08:19:02AM"}},
{"type":"Feature","geometry":{"type":"Point","coordinates":[76.422752,28.644243]},"properties":{"HeadName":"Loharu Feeder RD 42400","stationNam":"Badhwana Distributory","circlecode":"Lws Circle Bhiwani","Division_N":"LWS Divn. Ch. Dadri","Installati":"Badhwana Disty","level":"0.000","AuthorizIn":0,"indent":"","discharge":"0.000","Date":"18/09/2021","Time":"07:17:00AM"}},
{"type":"Feature","geometry":{"type":"Point","coordinates":[76.006302,28.50544]},"properties":{"HeadName":"Loharu Canal RD 97050","stationNam":"Sorra Distributory","circlecode":"Lws Circle Bhiwani","Division_N":"LWS Divn. Bhiwani","Installati":"Sorra Disty","level":"2.707","AuthorizIn":0,"indent":"","discharge":"48.396","Date":"18/09/2021","Time":"08:29:13AM"}},
{"type":"Feature","geometry":{"type":"Point","coordinates":[75.980377,28.462105]},"properties":{"HeadName":"Loharu Canal RD 115000","stationNam":"Loharu Distributory","circlecode":"Lws Circle Bhiwani","Division_N":"LWS Divn. Bhiwani","Installati":"Loharu Disty","level":"0.000","AuthorizIn":0,"indent":"","discharge":"0.000","Date":"18/09/2021","Time":"08:02:21AM"}},
{"type":"Feature","geometry":{"type":"Point","coordinates":[76.109019,28.085998]},"properties":{"HeadName":"Narnaul Branch RD 96785","stationNam":"Ateli Distributory","circlecode":"Jln WS Circle Narnaul","Division_N":"M/Garh Canal W/S Divn. Narnaul","Installati":"Ateli Disty","level":"5.461","AuthorizIn":0,"indent":"225","discharge":"119.546","Date":"18/09/2021","Time":"08:26:16AM"}},
{"type":"Feature","geometry":{"type":"Point","coordinates":[76.108456,28.085948]},"properties":{"HeadName":"Narnaul Branch RD 96785","stationNam":"Narnaul Distributory","circlecode":"Jln WS Circle Narnaul","Division_N":"M/Garh Canal W/S Divn. Narnaul","Installati":"Narnaul Disty","level":"5.066","AuthorizIn":0,"indent":"175","discharge":"73.386","Date":"18/09/2021","Time":"08:31:30AM"}},
{"type":"Feature","geometry":{"type":"Point","coordinates":[76.156387,28.085466]},"properties":{"HeadName":"Ateli Disty RD 15400","stationNam":"Nolpur Distributory","circlecode":"Jln WS Circle Narnaul","Division_N":"M/Garh Canal W/S Divn. Narnaul","Installati":"Nolpur Disty","level":"5.603","AuthorizIn":0,"indent":"130","discharge":"76.924","Date":"18/09/2021","Time":"07:26:14AM"}},
{"type":"Feature","geometry":{"type":"Point","coordinates":[76.088034,28.047401]},"properties":{"HeadName":"Narnaul Dy RD 16400","stationNam":"Shahbazpur Distributory","circlecode":"Jln WS Circle Narnaul","Division_N":"M/Garh Canal W/S Divn. Narnaul","Installati":"Shahbazpur Disty","level":"4.185","AuthorizIn":0,"indent":"60","discharge":"43.414","Date":"18/09/2021","Time":"08:01:37AM"}},
{"type":"Feature","geometry":{"type":"Point","coordinates":[76.581284,28.439918]},"properties":{"HeadName":"Salahwas Lift Channel RD 35675","stationNam":"Rattanthal Distributory","circlecode":"Jhajjar WS Circle Jhajjar","Division_N":"RLI W/S Divn. Jhajjar","Installati":"Rattanthal Disty","level":"1.888","AuthorizIn":0,"indent":"","discharge":"7.902","Date":"18/09/2021","Time":"08:03:38AM"}},
{"type":"Feature","geometry":{"type":"Point","coordinates":[76.498009,29.147209]},"properties":{"HeadName":"Butana Branch Tail","stationNam":"Bhiwani Sub Branch","circlecode":"Yamuna Water Service Circle Rohtak","Division_N":"Rohtak W/S Divn. Rohtak","Installati":"Bhiwani Sub Branch","level":"5.298","AuthorizIn":0,"indent":"","discharge":"682.578","Date":"18/09/2021","Time":"08:21:50AM"}},
{"type":"Feature","geometry":{"type":"Point","coordinates":[76.513191,29.158133]},"properties":{"HeadName":"Butana Branch Tail","stationNam":"Kahanaur Sub Branch","circlecode":"Yamuna Water Service Circle Rohtak","Division_N":"Rohtak W/S Divn. Rohtak","Installati":"Kahanaur Sub Branch","level":"0.000","AuthorizIn":0,"indent":"","discharge":"0.000","Date":"18/09/2021","Time":"08:20:59AM"}},
{"type":"Feature","geometry":{"type":"Point","coordinates":[76.619537,28.861938]},"properties":{"HeadName":"Head Jhajjar Sub Branch","stationNam":"Jhajjar Sub Branch","circlecode":"Yamuna Water Service Circle Rohtak","Division_N":"Sampla W/S Divn. Rohtak","Installati":"Jhajjar Sub Branch","level":"1.688","AuthorizIn":419,"indent":"","discharge":"55.001","Date":"18/09/2021","Time":"08:30:49AM"}},
{"type":"Feature","geometry":{"type":"Point","coordinates":[76.6208,28.8613]},"properties":{"HeadName":"Head Jhajjar Sub Branch","stationNam":"Dulhera Distributory","circlecode":"Yamuna Water Service Circle Rohtak","Division_N":"Sampla W/S Divn. Rohtak","Installati":"Dulhera Disty","level":"0.000","AuthorizIn":382,"indent":"","discharge":"0.000","Date":"18/09/2021","Time":"07:30:29AM"}},
{"type":"Feature","geometry":{"type":"Point","coordinates":[76.894859,29.161287]},"properties":{"HeadName":"Khubru Head","stationNam":"JLN Feeder","circlecode":"Jhajjar WS Circle Jhajjar","Division_N":"Feeder W/S Divn. Rohtak","Installati":"JLN Feeder","level":"5.844","AuthorizIn":0,"indent":"","discharge":"1171.463","Date":"18/09/2021","Time":"08:05:17AM"}},
{"type":"Feature","geometry":{"type":"Point","coordinates":[76.569229,29.227383]},"properties":{"HeadName":"Butana Branch RD  83","stationNam":"Butana Branch DS 83","circlecode":"Yamuna Water Service Circle Rohtak","Division_N":"W/S Divn. Gohana","Installati":"Butana Branch","level":"0.000","AuthorizIn":null,"indent":"","discharge":"0.000","Date":"18/09/2021","Time":"07:48:38AM"}},
{"type":"Feature","geometry":{"type":"Point","coordinates":[76.890366,29.157396]},"properties":{"HeadName":"Khubru Head","stationNam":"Bhalaut Sub Branch","circlecode":"Yamuna Water Service Circle Rohtak","Division_N":"W/S Divn. Gohana","Installati":"Bhalaut Sub Branch","level":"1.865","AuthorizIn":1252,"indent":"","discharge":"28.796","Date":"18/09/2021","Time":"08:02:27AM"}},
{"type":"Feature","geometry":{"type":"Point","coordinates":[76.636307,29.277367]},"properties":{"HeadName":"Butana Head","stationNam":"Butana Distributory","circlecode":"Yamuna Water Service Circle Rohtak","Division_N":"W/S Divn. Gohana","Installati":"Butana Disty","level":"0.989","AuthorizIn":0,"indent":"70","discharge":"56.079","Date":"18/09/2021","Time":"08:28:52AM"}},
{"type":"Feature","geometry":{"type":"Point","coordinates":[76.261253,29.115194]},"properties":{"HeadName":"Mohla Head","stationNam":"Sunder Sub Branch DS","circlecode":"Yamuna Water Service Circle Jind","Division_N":"Bhiwani W/S Divn. Bhiwani","Installati":"Sunder Sub Branch","level":"4.344","AuthorizIn":0,"indent":"","discharge":"398.067","Date":"18/09/2021","Time":"08:15:51AM"}},
{"type":"Feature","geometry":{"type":"Point","coordinates":[76.12825,29.022467]},"properties":{"HeadName":"Sunder Sub Branch RD 179128","stationNam":"Sunder Distributory","circlecode":"Yamuna Water Service Circle Bhiwani","Division_N":"Bhiwani W/S Divn. Bhiwani","Installati":"Sunder Disty","level":"3.939","AuthorizIn":0,"indent":"","discharge":"443.497","Date":"18/09/2021","Time":"08:24:06AM"}},
{"type":"Feature","geometry":{"type":"Point","coordinates":[76.256912,29.082502]},"properties":{"HeadName":"Mohla Head","stationNam":"Mithathal Feeder","circlecode":"Yamuna Water Service Circle Bhiwani","Division_N":"Bhiwani W/S Divn. Bhiwani","Installati":"Mithathal Feeder","level":"0.000","AuthorizIn":0,"indent":"","discharge":"0.000","Date":"18/09/2021","Time":"08:14:02AM"}},
{"type":"Feature","geometry":{"type":"Point","coordinates":[77.230019,30.080353]},"properties":{"HeadName":"Hamida Head","stationNam":"Main Line Lower DS","circlecode":"Hkb Circle Jagadhari","Division_N":"Dadupur W/S Divn. Y/Nagar","Installati":"WJC Main Line Lower","level":"6.622","AuthorizIn":null,"indent":"6050","discharge":"6912.848","Date":"18/09/2021","Time":"08:26:45AM"}},
{"type":"Feature","geometry":{"type":"Point","coordinates":[77.366554,30.157606]},"properties":{"HeadName":"Dadupur Head","stationNam":"Main Line Lower Head","circlecode":"Hkb Circle Jagadhari","Division_N":"Dadupur W/S Divn. Y/Nagar","Installati":"WJC Main Line Lower","level":"11.214","AuthorizIn":null,"indent":"8900","discharge":"9265.262","Date":"18/09/2021","Time":"08:32:11AM"}},
{"type":"Feature","geometry":{"type":"Point","coordinates":[77.271103,30.094709]},"properties":{"HeadName":"Hamida Head","stationNam":"Aug. Canal","circlecode":"Yamuna Water Service Circle Karnal","Division_N":"Indri W/S Divn. Karnal","Installati":"Aug. Canal","level":"4.925","AuthorizIn":null,"indent":"1800","discharge":"1855.449","Date":"18/09/2021","Time":"07:52:57AM"}},
{"type":"Feature","geometry":{"type":"Point","coordinates":[76.25695,29.082447]},"properties":{"HeadName":"Mohla Head","stationNam":"Jui Feeder","circlecode":"Yamuna Water Service Circle Bhiwani","Division_N":"Jui W/S Divn. Bhiwani","Installati":"Jui Feeder","level":"6.836","AuthorizIn":0,"indent":"","discharge":"924.830","Date":"18/09/2021","Time":"08:11:51AM"}},
{"type":"Feature","geometry":{"type":"Point","coordinates":[76.189766,28.89748]},"properties":{"HeadName":"Jui Feeder RD 88000","stationNam":"Nigana Feeder","circlecode":"Yamuna Water Service Circle Bhiwani","Division_N":"Jui W/S Divn. Bhiwani","Installati":"Nigana Feeder","level":"5.240","AuthorizIn":0,"indent":"","discharge":"403.440","Date":"18/09/2021","Time":"08:12:38AM"}},
{"type":"Feature","geometry":{"type":"Point","coordinates":[76.068291,28.713743]},"properties":{"HeadName":"Jui Feeder RD 173400","stationNam":"Jui Canal","circlecode":"Yamuna Water Service Circle Bhiwani","Division_N":"Jui W/S Divn. Bhiwani","Installati":"Ch. Bansi Lal Canal","level":"5.239","AuthorizIn":null,"indent":"","discharge":"281.863","Date":"18/09/2021","Time":"08:34:18AM"}},
{"type":"Feature","geometry":{"type":"Point","coordinates":[75.923599,28.837082]},"properties":{"HeadName":"Nigana Feeder RD 91950","stationNam":"Nigana Canal","circlecode":"Yamuna Water Service Circle Bhiwani","Division_N":"Jui W/S Divn. Bhiwani","Installati":"Nigana Canal","level":"6.780","AuthorizIn":0,"indent":"","discharge":"212.402","Date":"18/09/2021","Time":"08:23:06AM"}},
{"type":"Feature","geometry":{"type":"Point","coordinates":[76.332245,28.812983]},"properties":{"HeadName":"Dadri Feeder (Main Canal) Tail","stationNam":"Bond Distributory 0-51000","circlecode":"Lws Circle Bhiwani","Division_N":"Bond W/S Divn. Bhiwani","Installati":"Bond Disty 0-51000","level":"1.745","AuthorizIn":0,"indent":"","discharge":"24.392","Date":"18/09/2021","Time":"08:32:47AM"}},
{"type":"Feature","geometry":{"type":"Point","coordinates":[77.013687,29.848791]},"properties":{"HeadName":"Indri Head","stationNam":"WJC Main Line","circlecode":"Yamuna Water Service Circle Karnal","Division_N":"Karnal W/S Divn. Karnal","Installati":"WJC MAIN BRANCH","level":"4.959","AuthorizIn":null,"indent":"","discharge":"4306.078","Date":"18/09/2021","Time":"08:11:48AM"}},
{"type":"Feature","geometry":{"type":"Point","coordinates":[76.801575,29.856337]},"properties":{"HeadName":"Budhera Head","stationNam":"SYL Canal","circlecode":"Yamuna Water Service Circle Karnal","Division_N":"Karnal W/S Divn. Karnal","Installati":"S.Y.L CANAL","level":"0.000","AuthorizIn":null,"indent":"","discharge":"0.000","Date":"18/09/2021","Time":"08:09:04AM"}},
{"type":"Feature","geometry":{"type":"Point","coordinates":[76.801323,29.856289]},"properties":{"HeadName":"Budhera Head","stationNam":"NBL Link Channel","circlecode":"Yamuna Water Service Circle Karnal","Division_N":"Karnal W/S Divn. Karnal","Installati":"NBK Link","level":"10.968","AuthorizIn":1500,"indent":"","discharge":"1133.569","Date":"18/09/2021","Time":"08:27:05AM"}},
{"type":"Feature","geometry":{"type":"Point","coordinates":[76.84063,29.504686]},"properties":{"HeadName":"Munak Head","stationNam":"Parallel Delhi Branch","circlecode":"Yamuna Water Service Circle Karnal","Division_N":"Panipat W/S Divn. Panipat","Installati":"PARALLEL DELHI BRANCH","level":"7.095","AuthorizIn":null,"indent":"","discharge":"2165.514","Date":"18/09/2021","Time":"08:23:54AM"}},
{"type":"Feature","geometry":{"type":"Point","coordinates":[76.838242,29.519976]},"properties":{"HeadName":"Munak Head","stationNam":"Carrier Lined Channel","circlecode":"Yamuna Water Service Circle Karnal","Division_N":"Panipat W/S Divn. Panipat","Installati":"CARRIER LINED CHANNEL","level":"3.833","AuthorizIn":null,"indent":"","discharge":"765.242","Date":"18/09/2021","Time":"08:26:21AM"}},
{"type":"Feature","geometry":{"type":"Point","coordinates":[76.83651,29.522409]},"properties":{"HeadName":"Munak Head","stationNam":"Gohana Distributory","circlecode":"Yamuna Water Service Circle Karnal","Division_N":"Panipat W/S Divn. Panipat","Installati":"Gohana Disty","level":"2.720","AuthorizIn":0,"indent":"","discharge":"179.976","Date":"18/09/2021","Time":"08:21:59AM"}},
{"type":"Feature","geometry":{"type":"Point","coordinates":[75.719467,28.79022]},"properties":{"HeadName":"Siwani Canal RD 47000","stationNam":"Motipura Distributory","circlecode":"Yamuna Water Service Circle Bhiwani","Division_N":"Sewani W/S Divn. Bhiwani","Installati":"Motipura Disty","level":"5.078","AuthorizIn":103.5,"indent":"102.61","discharge":"82.439","Date":"18/09/2021","Time":"08:18:00AM"}},
{"type":"Feature","geometry":{"type":"Point","coordinates":[76.553215,29.230295]},"properties":{"HeadName":"Butana Branch Tail","stationNam":"Sunder Sub Branch","circlecode":"Yamuna Water Service Circle Bhiwani","Division_N":"W/S Divn. Jind","Installati":"Sunder Sub Branch","level":"4.185","AuthorizIn":null,"indent":"","discharge":"1277.521","Date":"18/09/2021","Time":"08:18:14AM"}},
{"type":"Feature","geometry":{"type":"Point","coordinates":[76.42379,29.1893]},"properties":{"HeadName":"Sunder Sub Branch RD 56402","stationNam":"Karsola Minor","circlecode":"Yamuna Water Service Circle Jind","Division_N":"W/S Divn. Jind","Installati":"Karsola Minor","level":"1.852","AuthorizIn":0,"indent":"115","discharge":"41.023","Date":"18/09/2021","Time":"08:26:51AM"}},
{"type":"Feature","geometry":{"type":"Point","coordinates":[76.56411,29.403328]},"properties":{"HeadName":"Randana Head","stationNam":"Muana Distributory","circlecode":"Yamuna Water Service Circle Jind","Division_N":"W/S Divn. Jind","Installati":"Muana Disty","level":"3.586","AuthorizIn":0,"indent":"55","discharge":"44.722","Date":"18/09/2021","Time":"08:28:54AM"}},
{"type":"Feature","geometry":{"type":"Point","coordinates":[76.836308,29.522713]},"properties":{"HeadName":"Munak Head","stationNam":"Hansi Branch","circlecode":"Yamuna Water Service Circle Jind","Division_N":"W/S Divn.Safidon","Installati":"Hansi Branch","level":"5.445","AuthorizIn":0,"indent":"","discharge":"2865.321","Date":"18/09/2021","Time":"07:42:34AM"}},
{"type":"Feature","geometry":{"type":"Point","coordinates":[76.700119,29.413237]},"properties":{"HeadName":"Anta Head","stationNam":"Hansi Branch Distributory","circlecode":"Yamuna Water Service Circle Jind","Division_N":"W/S Divn.Safidon","Installati":"Hansi Branch","level":"4.572","AuthorizIn":0,"indent":"1400","discharge":"1402.178","Date":"18/09/2021","Time":"08:06:05AM"}},
{"type":"Feature","geometry":{"type":"Point","coordinates":[76.703369,29.403788]},"properties":{"HeadName":"Anta Head","stationNam":"Butana Branch","circlecode":"Yamuna Water Service Circle Jind","Division_N":"W/S Divn.Safidon","Installati":"BUTANA BRANCH","level":"4.650","AuthorizIn":0,"indent":"1300","discharge":"1298.867","Date":"18/09/2021","Time":"08:10:42AM"}},
{"type":"Feature","geometry":{"type":"Point","coordinates":[76.704804,29.412849]},"properties":{"HeadName":"Hansi Branch RD 59600/L","stationNam":"Jind Distributory No. 3","circlecode":"Yamuna Water Service Circle Jind","Division_N":"W/S Divn.Safidon","Installati":"Jind Disty No. 3","level":"3.685","AuthorizIn":0,"indent":"180","discharge":"188.802","Date":"18/09/2021","Time":"08:10:25AM"}},
{"type":"Feature","geometry":{"type":"Point","coordinates":[75.207497,29.754028]},"properties":{"HeadName":"Bhakhra Main Branch RD 223928/L","stationNam":"Rori Branch","circlecode":"Bws Circle Sirsa","Division_N":"Sirsa W/S Divn. Sirsa","Installati":"Rori Branch","level":"0.000","AuthorizIn":0,"indent":"","discharge":"0.000","Date":"18/09/2021","Time":"08:11:31AM"}}
]}